id,ville,latitude (deg),longitude (deg),altitude (0),"population(milliers, estimée 2025)"
0,Tokyo,35.6895,139.6917,0,37036
1,Delhi,28.6667,77.2167,0,34665
2,Shanghai,31.2222,121.4581,0,30482
3,Dhaka,23.7104,90.4074,0,24652
4,Al-Qahirah (Cairo),30.0392,31.2394,0,23074
5,São Paulo,-23.5475,-46.6361,0,22990
6,Ciudad de México (Mexico City),19.4273,-99.1419,0,22752
7,Beijing,39.9075,116.3972,0,22596
8,Mumbai (Bombay),19.0740,72.8808,0,22088
9,New York-Newark,40.7170,-74.0037,0,19154
10,Kinki M.M.A. (Osaka),34.6758,135.5538,0,18921
11,Chongqing,29.5628,106.5528,0,18171
12,Karachi,24.9056,67.0822,0,18076
13,Kinshasa,-4.3276,15.3136,0,17778
14,Lagos,6.4531,3.3958,0,17156
15,Istanbul,41.0138,28.9497,0,16236
16,Kolkata (Calcutta),22.5335,88.3560,0,15845
17,Buenos Aires,-34.6051,-58.4004,0,15752
18,Manila,14.6042,120.9822,0,15230
19,"Guangzhou, Guangdong",23.1255,113.2574,0,14878
20,Lahore,31.5497,74.3436,0,14825
21,Tianjin,39.1088,117.1886,0,14704
22,Bangalore,12.9719,77.5937,0,14395
23,Rio de Janeiro,-22.9028,-43.2075,0,13923
24,Shenzhen,22.5415,114.0634,0,13545
25,Moskva (Moscow),55.7550,37.6218,0,12737
26,Los Angeles-Long Beach-Santa Ana,34.0317,-118.2417,0,12677
27,Chennai (Madras),13.0531,80.2488,0,12336
28,Bogotá,4.6097,-74.0817,0,11795
29,Jakarta,-6.2118,106.8416,0,11634
30,Lima,-12.0432,-77.0282,0,11517
31,Krung Thep (Bangkok),13.7220,100.5252,0,11391
32,Paris,48.8534,2.3488,0,11346
33,Hyderabad,17.3753,78.4744,0,11337
34,"Nanjing, Jiangsu",32.0482,118.7898,0,10174
35,Luanda,-8.8368,13.2343,0,10027
36,Seoul,37.5683,126.9778,0,10025
37,Chengdu,30.6667,104.0667,0,9998
38,London,51.5085,-0.1257,0,9840
39,Thành Pho Ho Chí Minh (Ho Chi Minh City),10.7500,106.6667,0,9816
40,Tehran,35.6944,51.4215,0,9729
41,Chukyo M.M.A. (Nagoya),35.1815,136.9064,0,9534
42,"Xi'an, Shaanxi",34.2894,108.9402,0,9222
43,Ahmadabad,23.0333,72.6167,0,9061
44,Chicago,41.8500,-87.6500,0,9042
45,Kuala Lumpur,3.1412,101.6865,0,9000
46,Wuhan,30.5833,114.2667,0,8986
47,"Suzhou, Jiangsu",31.3021,120.5853,0,8592
48,Hangzhou,30.2936,120.1614,0,8591
49,Surat,21.1667,72.8333,0,8581
50,Dar es Salaam,-6.8235,39.2695,0,8561
51,Baghdad,33.3406,44.4009,0,8141
52,Shenyang,41.7922,123.4328,0,7974
53,Ar-Riyadh (Riyadh),24.6905,46.7096,0,7952
54,Foshan,23.0228,113.1200,0,7817
55,Dongguan,23.0212,113.7414,0,7772
56,Hong Kong,22.2796,114.1887,0,7768
57,Pune (Poona),18.5161,73.8616,0,7525
58,Haerbin,45.7563,126.6467,0,7066
59,Santiago,-33.4569,-70.6483,0,6999
60,Houston,29.7602,-95.3694,0,6889
61,Madrid,40.4165,-3.7026,0,6810
62,Al-Khartum (Khartoum),15.5518,32.5324,0,6754
63,Dallas-Fort Worth,32.7254,-97.3208,0,6732
64,Toronto,43.7001,-79.4163,0,6491
65,Johannesburg,-26.2023,28.0436,0,6444
66,Miami,25.7891,-80.2040,0,6371
67,Belo Horizonte,-19.9208,-43.9378,0,6351
68,Dalian,38.9138,121.6023,0,6347
69,Atlanta,33.7600,-84.4000,0,6271
70,Qingdao,36.0986,120.3719,0,6217
71,Singapore,1.2897,103.8501,0,6157
72,Zhengzhou,34.7578,113.6486,0,6156
73,"Ji'nan, Shandong",36.6767,116.9971,0,6065
74,Abidjan,5.3453,-4.0268,0,6056
75,Addis Ababa,9.0250,38.7469,0,5956
76,Philadelphia,39.9523,-75.1638,0,5861
77,Yangon,16.8053,96.1561,0,5813
78,Al-Iskandariyah (Alexandria),31.1925,29.9046,0,5807
79,Nairobi,-1.2833,36.8167,0,5766
80,Barcelona,41.3888,2.1590,0,5733
81,Chittagong,22.3331,91.8364,0,5653
82,Hà Noi,21.0245,105.8412,0,5602
83,"Washington, D.C.",38.8951,-77.0364,0,5599
84,Sankt Peterburg (Saint Petersburg),59.9299,30.3262,0,5597
85,Guadalajara,20.6667,-103.3333,0,5578
86,Ankara,39.9199,32.8543,0,5550
87,Kitakyushu-Fukuoka M.M.A.,33.6064,130.4181,0,5465
88,Melbourne,-37.8140,144.9633,0,5391
89,Monterrey,25.6667,-100.3167,0,5272
90,Sydney,-33.8678,151.2073,0,5248
91,Ürümqi (Wulumqi),43.8253,87.6038,0,5132
92,Changsha,28.2274,112.9383,0,5128
93,Cape Town,-33.9258,18.4232,0,5063
94,Jiddah,21.5169,39.2192,0,5021
95,Brasília,-15.7797,-47.9297,0,4990
96,Kunming,25.0389,102.7183,0,4955
97,Changchun,43.8825,125.2940,0,4891
98,Kabul,34.5289,69.1725,0,4877
99,Yaoundé,3.8667,11.5167,0,4854
100,Phoenix-Mesa,33.4495,-112.0747,0,4833
101,Hefei,31.8639,117.2808,0,4830
102,Ningbo,29.8782,121.5494,0,4770
103,Shantou,23.3681,116.7148,0,4737
104,Kano,12.0001,8.5167,0,4645
105,Tel Aviv-Yafo (Tel Aviv-Jaffa),32.0809,34.7806,0,4568
106,Xinbei,25.0121,121.4621,0,4563
107,Shijiazhuang,38.0418,114.5108,0,4534
108,Jaipur,26.9167,75.8167,0,4411
109,Boston,42.3479,-71.0645,0,4395
110,Kozhikode (Calicut),11.2567,75.7787,0,4387
111,Nanning,22.8167,108.3167,0,4383
112,Montréal,45.5088,-73.5878,0,4377
113,Roma (Rome),41.8947,12.4811,0,4347
114,Douala,4.0483,9.7043,0,4346
115,Recife,-8.0539,-34.8811,0,4344
116,Malappuram,11.0667,76.0667,0,4343
117,"Taiyuan, Shanxi",37.8619,112.5516,0,4305
118,Fortaleza,-3.7412,-38.5436,0,4284
119,Pôrto Alegre,-30.0331,-51.2300,0,4268
120,Kampala,0.3163,32.5822,0,4265
121,Ekurhuleni,-26.2500,28.3300,0,4262
122,Antananarivo,-18.9137,47.5361,0,4228
123,Abuja,9.0573,7.4898,0,4209
124,"Changzhou, Jiangsu",31.7943,119.9589,0,4180
125,Medellín,6.2518,-75.5636,0,4172
126,Ibadan,7.3878,3.8964,0,4144
127,Lucknow,26.8500,80.9167,0,4132
128,Nanchang,28.6833,115.8833,0,4104
129,Wenzhou,27.9994,120.6668,0,4093
130,Xiamen,24.4798,118.0819,0,4077
131,"Fuzhou, Fujian",26.0754,119.2989,0,4072
132,Kumasi,6.6885,-1.6244,0,4036
133,Salvador,-12.9711,-38.5108,0,4029
134,"Tangshan, Hebei",39.6285,118.1799,0,4024
135,Dar-el-Beida (Casablanca),33.5928,-7.6192,0,4012
136,Bekasi,-6.2383,106.9756,0,3926
137,Faisalabad,31.4167,73.0833,0,3892
138,Curitiba,-25.4278,-49.2731,0,3889
139,Port Harcourt,4.7774,7.0134,0,3793
140,Guiyang,26.5833,106.7167,0,3736
141,Thrissur,10.5167,76.2167,0,3719
142,Dakar,14.6937,-17.4441,0,3658
143,Santo Domingo,18.4896,-69.9018,0,3648
144,Asunción,-25.3007,-57.6359,0,3627
145,Kochi (Cochin),9.9307,76.2601,0,3604
146,Seattle,47.6264,-122.3331,0,3580
147,Berlin,52.5244,13.4105,0,3580
148,"Wuxi, Jiangsu",31.5367,120.2986,0,3559
149,Detroit,42.3871,-83.1026,0,3542
150,Sana'a',15.3531,44.2078,0,3527
151,Ouagadougou,12.3642,-1.5383,0,3520
152,Campinas,-22.9109,-47.0656,0,3491
153,Busan,35.1028,129.0403,0,3484
154,Indore,22.7179,75.8333,0,3482
155,Lusaka,-15.4134,28.2771,0,3470
156,Mashhad,36.2970,59.6062,0,3460
157,Puebla,19.0415,-98.2050,0,3443
158,Lanzhou,36.0564,103.7922,0,3430
159,Al Kuwayt (Kuwait City),29.3697,47.9783,0,3404
160,San Diego,32.7153,-117.1573,0,3373
161,San Francisco-Oakland,37.7599,-122.4374,0,3362
162,Kanpur,26.4667,80.3500,0,3345
163,Durban (Ethekwini),-29.8579,31.0292,0,3301
164,Guayaquil,-2.1667,-79.9000,0,3244
165,Ciudad de Guatemala (Guatemala City),14.6127,-90.5307,0,3229
166,Depok,-6.4025,106.7942,0,3218
167,P'yongyang,39.0339,125.7543,0,3209
168,Bamako,12.6500,-8.0000,0,3180
169,Nagpur,21.1500,79.1000,0,3170
170,Milano (Milan),45.5531,9.1834,0,3167
171,Handan,36.6006,114.4678,0,3159
172,Coimbatore,10.9925,76.9614,0,3158
173,Mbuji-Mayi,-6.1500,23.6000,0,3158
174,Athínai (Athens),37.9534,23.7490,0,3155
175,Izmir,38.4127,27.1384,0,3152
176,Huai'an,33.6070,119.0148,0,3152
177,Surabaya,-7.2888,112.7411,0,3137
178,Port-au-Prince,18.5392,-72.3350,0,3133
179,Dubayy (Dubai),25.2721,55.3113,0,3094
180,Zhongshan,22.5180,113.3839,0,3093
181,Thiruvananthapuram,8.5069,76.9569,0,3072
182,Weifang,36.7100,119.1019,0,3064
183,Lubumbashi,-11.6609,27.4794,0,3061
184,Tampa-St. Petersburg,27.9475,-82.4584,0,3039
185,Minneapolis-St. Paul,44.9731,-93.2699,0,3039
186,Lisboa (Lisbon),38.7169,-9.1399,0,3028
187,Kyiv (Kiev),50.4454,30.5186,0,3018
188,Caracas,10.4880,-66.8792,0,3015
189,El Djazaïr  (Algiers),36.7525,3.0420,0,3004
190,Las Vegas,36.1699,-115.1398,0,2999
191,Denver-Aurora,39.7343,-104.9831,0,2994
192,Pretoria,-25.7449,28.1878,0,2955
193,Shaoxing,30.0110,120.5715,0,2951
194,Shizuoka-Hamamatsu M.M.A.,34.9769,138.3831,0,2930
195,Goiânia,-16.6786,-49.2539,0,2927
196,Cali,3.4372,-76.5225,0,2916
197,Yantai,37.4651,121.4372,0,2898
198,Huizhou,23.0833,114.4000,0,2890
199,Zibo,36.7906,118.0633,0,2876
200,Incheon,37.4536,126.7317,0,2873
201,Muqdisho (Mogadishu),2.0416,45.3435,0,2846
202,Manchester,53.4809,-2.2374,0,2832
203,Brazzaville,-4.2658,15.2832,0,2813
204,Dimashq (Damascus),33.5086,36.3084,0,2799
205,Accra,5.5560,-0.1969,0,2788
206,Taibei,25.0470,121.5457,0,2779
207,Bandung,-6.9194,107.6085,0,2758
208,Luoyang,34.6186,112.4562,0,2725
209,Toluca de Lerdo,19.2839,-99.6573,0,2719
210,Vancouver,49.2497,-123.1193,0,2707
211,Birmingham (West Midlands),52.4814,-1.8998,0,2704
212,Patna,25.6000,85.1167,0,2689
213,Bhopal,23.2667,77.4000,0,2686
214,Tashkent,41.2647,69.2163,0,2665
215,Riverside-San Bernardino,33.9534,-117.3962,0,2664
216,Sapporo,43.0642,141.3469,0,2653
217,Tangerang,-6.2024,106.6527,0,2626
218,Nantong,31.9904,120.8655,0,2613
219,Brisbane,-27.4679,153.0281,0,2568
220,Peshawar,34.0020,71.5594,0,2548
221,Tunis,36.8190,10.1658,0,2545
222,Gujranwala,32.1500,74.1833,0,2543
223,San Antonio,29.4241,-98.4935,0,2524
224,Medan,3.5833,98.6667,0,2521
225,Hohhot,40.8106,111.6522,0,2500
226,Baku,40.3777,49.8920,0,2496
227,Rawalpindi,33.6000,73.0667,0,2486
228,Agra,27.1833,78.0167,0,2478
229,Kannur,11.8729,75.3716,0,2465
230,Belém,-1.4561,-48.4790,0,2453
231,Liuzhou,24.3017,109.3784,0,2447
232,Visakhapatnam,17.6819,83.2097,0,2440
233,Halab (Aleppo),36.2136,37.1571,0,2438
234,Manaus,-3.1019,-60.0250,0,2434
235,San Juan,18.4663,-66.1057,0,2433
236,Maracaibo,10.6317,-71.6406,0,2432
237,Phnum Pénh (Phnom Penh),11.5625,104.9160,0,2425
238,Baotou,40.6522,109.8222,0,2425
239,Vadodara,22.3000,73.2000,0,2424
240,Barranquilla,10.9639,-74.7964,0,2396
241,Baltimore,39.2904,-76.6122,0,2386
242,Bayrut (Beirut),33.9000,35.4833,0,2379
243,Xuzhou,34.2637,117.1866,0,2376
244,Charlotte,35.2271,-80.8431,0,2367
245,Taoyuan,24.9936,121.2969,0,2356
246,Nashik,19.9833,73.8000,0,2351
247,Vijayawada,16.5167,80.6167,0,2350
248,Sendai,38.2560,140.8976,0,2337
249,Tijuana,32.5333,-117.0167,0,2333
250,Esfahan,32.6572,51.6776,0,2327
251,Putian,25.4394,119.0103,0,2315
252,Austin,30.2700,-97.7400,0,2313
253,Amman,31.9552,35.9450,0,2273
254,Sacramento,38.5816,-121.4944,0,2268
255,Portland,45.5215,-122.6799,0,2264
256,Multan,30.1833,71.4833,0,2258
257,"Wuhu, Anhui",31.3336,118.3812,0,2257
258,St. Louis,38.6286,-90.1972,0,2256
259,Kollam,8.8806,76.5917,0,2252
260,Conakry,9.5716,-13.6476,0,2251
261,Grande Vitória,-20.3054,-40.3079,0,2220
262,Makkah (Mecca),21.4174,39.8159,0,2218
263,Yangzhou,32.3915,119.4238,0,2216
264,"Taizhou, Zhejiang",28.6372,121.4185,0,2198
265,Baoding,38.8511,115.4903,0,2190
266,Napoli (Naples),40.8502,14.2592,0,2182
267,Daegu,35.8703,128.5911,0,2181
268,Perth,-31.9478,115.8525,0,2169
269,"Linyi, Shandong",35.0541,118.3334,0,2161
270,La Habana (Havana),23.1195,-82.3785,0,2156
271,Rajkot,22.3000,70.7833,0,2150
272,Bursa,40.1917,29.0611,0,2142
273,Bruxelles-Brussel,50.8467,4.3499,0,2141
274,Orlando,28.5383,-81.3792,0,2128
275,Lomé,6.1375,1.2123,0,2108
276,Haikou,20.0274,110.3301,0,2095
277,Daqing,46.5833,125.0000,0,2085
278,Lianyungang,34.5969,119.1758,0,2080
279,"Yancheng, Jiangsu",33.3569,120.1551,0,2073
280,Minsk,53.9000,27.5667,0,2070
281,Hyderabad,25.3667,68.3667,0,2058
282,Hiroshima,34.3928,132.4605,0,2058
283,Ciudad de Panamá (Panama City),8.9958,-79.5196,0,2054
284,Semarang,-6.9932,110.4203,0,2052
285,Benin City,6.3350,5.6275,0,2044
286,Almaty,43.2472,76.9101,0,2042
287,Davao City,7.0739,125.6125,0,2033
288,Valencia,10.1620,-68.0076,0,2030
289,Ludhiana,30.9000,75.8500,0,2028
290,Rabat,34.0132,-6.8326,0,2020
291,Quito,-0.2298,-78.5250,0,2017
292,Can Tho,10.0333,105.7833,0,2007
293,Wien (Vienna),48.2064,16.3707,0,2005
294,La Paz,-16.5000,-68.1500,0,1997
295,Matola,-25.9622,32.4589,0,1984
296,Baixada Santista,-23.9570,-46.3266,0,1981
297,Zhuhai,22.2769,113.5678,0,1968
298,Quanzhou,24.8968,118.5997,0,1966
299,West Yorkshire,53.7984,-1.7649,0,1956
300,Datong,40.0805,113.2930,0,1951
301,León de los Aldamas,21.1234,-101.6805,0,1950
302,Indianapolis,39.7909,-86.1477,0,1924
303,Raipur,21.2333,81.6333,0,1923
304,Madurai,9.9333,78.1167,0,1911
305,Ash-Shariqah (Sharjah),25.3573,55.4033,0,1909
306,Al-Mawsil (Mosul),36.3350,43.1189,0,1904
307,Santa Cruz,-17.7989,-63.1698,0,1891
308,Palembang,-2.9167,104.7458,0,1887
309,Cixi,30.1761,121.2524,0,1885
310,Adana,37.0017,35.3289,0,1876
311,Meerut,28.9716,77.7193,0,1874
312,La Laguna,25.5500,-103.4333,0,1866
313,Batam,1.1191,104.0313,0,1858
314,Gaziantep,37.0594,37.3825,0,1858
315,San Jose,37.3394,-121.8950,0,1847
316,Jiangmen,22.5833,113.0833,0,1826
317,Varanasi (Benares),25.3164,82.9822,0,1826
318,Kananga,-5.8962,22.4166,0,1815
319,Torino (Turin),45.0687,7.6772,0,1809
320,Xiangyang,32.0088,112.1440,0,1801
321,Cincinnati,39.1047,-84.5188,0,1801
322,Yichang,30.7144,111.2847,0,1800
323,Warszawa (Warsaw),52.2298,21.0118,0,1800
324,Yinchuan,38.4681,106.2731,0,1795
325,Monrovia,6.3005,-10.7969,0,1794
326,Montevideo,-34.8335,-56.1673,0,1788
327,Hamburg,53.5500,10.0000,0,1787
328,Lyon,45.7485,4.8467,0,1787
329,Tiruppur,11.1154,77.3546,0,1783
330,Budapest,47.4980,19.0399,0,1782
331,Cleveland,41.4986,-81.6874,0,1780
332,Suqian,33.9681,118.2924,0,1779
333,Srinagar,34.0837,74.7974,0,1777
334,Jamshedpur,22.8000,86.1833,0,1767
335,Aurangabad,19.8766,75.3433,0,1767
336,Onitsha,6.1454,6.7885,0,1767
337,Shiraz,29.6036,52.5388,0,1763
338,Qinhuangdao,39.9317,119.5883,0,1762
339,Bucuresti (Bucharest),44.4328,26.1043,0,1758
340,Kansas City,39.1142,-94.6275,0,1753
341,"Columbus, Ohio",39.9622,-83.0002,0,1745
342,Xining,36.6167,101.7667,0,1740
343,Hengyang,26.8841,112.6251,0,1739
344,Anyang,36.0944,114.3503,0,1738
345,Anshan,41.1236,122.9900,0,1738
346,Stockholm,59.3326,18.0649,0,1737
347,Makassar (Ujung Pandang),-5.1444,119.4236,0,1737
348,Ulaanbaatar,47.9077,106.8832,0,1724
349,N'Djaména,12.1067,15.0444,0,1722
350,Jilin,43.8508,126.5603,0,1719
351,Glasgow,55.8651,-4.2576,0,1718
352,Pittsburgh,40.4418,-79.9882,0,1716
353,Auckland,-36.8667,174.7667,0,1711
354,Novosibirsk,55.0415,82.9346,0,1706
355,Masqat (Muscat),23.6139,58.5922,0,1702
356,Tabriz,38.0800,46.2919,0,1695
357,Qiqihaer,47.3408,123.9672,0,1689
358,Calgary,51.0441,-114.0593,0,1687
359,Kathmandu,27.7017,85.3206,0,1672
360,Jodhpur,26.2392,73.0158,0,1664
361,Raleigh,35.7789,-78.6375,0,1660
362,Tegucigalpa,14.0818,-87.2068,0,1650
363,Marseille-Aix-en-Provence,43.5284,5.4433,0,1644
364,Córdoba,-31.4135,-64.1810,0,1640
365,Harare,-17.8294,31.0539,0,1633
366,Rosario,-32.9468,-60.6393,0,1631
367,Ciudad Juárez,31.7333,-106.4833,0,1625
368,Al-Madinah (Medina),24.4635,39.6111,0,1624
369,"Jining, Shandong",35.4146,116.5847,0,1622
370,Ranchi,23.3500,85.3333,0,1621
371,Abu Zaby (Abu Dhabi),24.4648,54.3618,0,1618
372,Karaj,35.8355,51.0103,0,1614
373,Nouakchott,18.0858,-15.9785,0,1612
374,Kota,25.1665,75.8561,0,1599
375,Zhangjiakou,40.8100,114.8794,0,1598
376,Mandalay,21.9747,96.0836,0,1594
377,München (Munich),48.1371,11.5734,0,1590
378,Edmonton,53.5434,-113.5037,0,1588
379,Daejon,36.3214,127.4197,0,1586
380,Jabalpur,23.1670,79.9501,0,1582
381,Natal,-5.7950,-35.2094,0,1575
382,Gaoxiong,22.6260,120.3155,0,1565
383,Asansol,23.6833,86.9833,0,1565
384,Huainan,32.6264,116.9969,0,1564
385,Yiwu,29.3151,120.0768,0,1563
386,Hims (Homs),34.7318,36.7181,0,1563
387,Niamey,13.5137,2.1098,0,1561
388,Mombasa,-4.0547,39.6636,0,1553
389,Ganzhou,25.8500,114.9333,0,1550
390,Grande São Luís,-2.5385,-44.2832,0,1548
391,Kisangani,0.5167,25.2000,0,1546
392,Chaozhou,23.6651,116.6379,0,1545
393,Gwalior,26.2236,78.1792,0,1543
394,Yekaterinburg,56.8575,60.6125,0,1536
395,Gwangju,35.1461,126.9186,0,1536
396,Al-Basrah (Basra),30.4972,47.8149,0,1524
397,Allahabad,25.4500,81.8500,0,1523
398,Jiaxing,30.7665,120.7482,0,1511
399,Amritsar,31.6310,74.8755,0,1511
400,"Taizhou, Jiangsu",32.4945,119.9029,0,1506
401,Virginia Beach,36.8345,-76.0872,0,1505
402,Hai Phòng,20.8648,106.6834,0,1503
403,San José,9.9278,-84.0807,0,1502
404,Weihai,37.5017,122.1136,0,1499
405,Chon Buri,13.3611,100.9883,0,1491
406,Liuyang,28.1500,113.6333,0,1476
407,Milwaukee,43.0389,-87.9065,0,1473
408,Liuan,31.7543,116.4981,0,1471
409,Kaifeng,34.7911,114.3483,0,1467
410,"Taian, Shandong",36.1904,117.1191,0,1467
411,Ottawa-Gatineau,45.4166,-75.6980,0,1465
412,Cochabamba,-17.3895,-66.1568,0,1460
413,Querétaro,20.6000,-100.3833,0,1459
414,Rizhao,35.4034,119.5120,0,1458
415,Uyo,5.0513,7.9335,0,1457
416,Zürich (Zurich),47.3578,8.5030,0,1455
417,Konya,37.8713,32.4846,0,1450
418,João Pessoa,-7.1150,-34.8631,0,1447
419,Mwanza,-2.5167,32.9000,0,1447
420,Nanchong,30.7951,106.0847,0,1444
421,Dhanbad,23.8000,86.4500,0,1441
422,Dongying,37.4533,118.5785,0,1440
423,Zunyi,27.7113,106.9365,0,1434
424,Zhanjiang,21.2662,110.3596,0,1425
425,Pointe-Noire,-4.7761,11.8635,0,1423
426,Shiyan,32.6445,110.7836,0,1418
427,Kharkiv,49.9808,36.2527,0,1415
428,Bareilly,28.3500,79.4167,0,1413
429,Beograd (Belgrade),44.8176,20.4633,0,1412
430,Bucaramanga,7.1254,-73.1198,0,1411
431,"Mianyang, Sichuan",31.4839,104.7370,0,1400
432,København (Copenhagen),55.6759,12.5655,0,1400
433,Tengzhou,35.0845,117.1624,0,1394
434,Antalya,36.9081,30.6956,0,1394
435,Samut Prakan,13.5993,100.5968,0,1393
436,Taizhong,24.1416,120.6727,0,1393
437,Lilongwe,-13.9669,33.7873,0,1393
438,Adelaide,-34.9287,138.5986,0,1392
439,Qom,34.6401,50.8764,0,1392
440,Suweon,37.2635,127.0214,0,1388
441,Maceió,-9.6658,-35.7353,0,1387
442,Freetown,8.4840,-13.2299,0,1387
443,Yingkou,40.6648,122.2283,0,1385
444,"Suzhou, Anhui",33.6359,116.9747,0,1385
445,Tanger,35.7847,-5.8128,0,1381
446,Aligarh,27.8833,78.0833,0,1379
447,Ad-Dammam,26.4344,50.1033,0,1375
448,Abomey-Calavi,6.4485,2.3557,0,1375
449,Joinville,-26.3044,-48.8456,0,1374
450,Moradabad,28.8333,78.7833,0,1369
451,Bukavu,-2.5083,28.8608,0,1369
452,Pekan Baru,0.5333,101.4500,0,1364
453,Maoming,21.6627,110.9234,0,1361
454,Nnewi,6.0199,6.9148,0,1361
455,"Jacksonville, Florida",30.3322,-81.6556,0,1359
456,Jieyang,23.5526,116.3721,0,1354
457,Helsinki,60.1692,24.9402,0,1354
458,Astana,51.1801,71.4460,0,1352
459,Nashville-Davidson,36.1610,-86.7830,0,1350
460,Bujumbura,-3.3822,29.3644,0,1350
461,Mysore,12.2979,76.6393,0,1345
462,Ruian,27.7808,120.6755,0,1344
463,Fès,34.0371,-4.9998,0,1336
464,Porto,41.1496,-8.6110,0,1334
465,"Fushun, Liaoning",41.8807,123.9467,0,1332
466,Praha (Prague),50.0880,14.4208,0,1331
467,Port Elizabeth (Nelson Mandela Bay),-33.9180,25.5701,0,1330
468,Jinhua,29.0807,119.6464,0,1329
469,Kigali,-1.9474,30.0579,0,1329
470,Ahvaz,31.3203,48.6693,0,1324
471,Florianópolis,-27.5967,-48.5492,0,1323
472,Bhubaneswar,20.2333,85.8333,0,1320
473,Baoji,34.3651,107.2004,0,1317
474,Durg-Bhilainagar,21.1887,81.2806,0,1315
475,"Pingdingshan, Henan",33.7417,113.3040,0,1312
476,San Luis Potosí,22.1500,-100.9833,0,1310
477,Liupanshui,26.5923,104.8377,0,1309
478,Puning,23.2967,116.1647,0,1309
479,Chifeng,42.2646,118.9152,0,1305
480,Islamabad,33.7035,73.0594,0,1301
481,Kazan,55.7887,49.1221,0,1299
482,Zhuzhou,27.8333,113.1500,0,1299
483,"Zhenjiang, Jiangsu",32.2027,119.4489,0,1299
484,Dublin,53.3331,-6.2489,0,1299
485,Tasikmalaya,-7.3506,108.2172,0,1297
486,Huaibei,33.9549,116.7929,0,1291
487,Xiongan,38.9796,116.0790,0,1288
488,Sofia,42.6975,23.3241,0,1286
489,Da Nang,16.0513,108.2124,0,1286
490,Pizhou,34.3114,117.9503,0,1282
491,Barquisimeto,10.0739,-69.3228,0,1281
492,Bogor,-6.6065,106.8019,0,1281
493,Luohe,33.5731,114.0241,0,1278
494,Aba,5.1066,7.3667,0,1274
495,"Nanyang, Henan",32.9999,112.5259,0,1274
496,"Xiangtan, Hunan",27.8283,112.9270,0,1273
497,Maracay,10.2469,-67.5958,0,1270
498,Tiruchirappalli,10.8050,78.6856,0,1269
499,Bazhong,31.8662,106.7325,0,1268
500,Chandigarh,30.7343,76.7933,0,1266
501,Binzhou,37.3811,118.0109,0,1263
502,Jinzhou,41.1078,121.1417,0,1260
503,Kaduna,10.5222,7.4383,0,1259
504,Mérida,20.9667,-89.6167,0,1258
505,Benxi,41.2886,123.7650,0,1258
506,Mendoza,-32.8908,-68.8272,0,1257
507,Quetta,30.1990,67.0097,0,1253
508,Nizhniy Novgorod,56.3287,44.0020,0,1249
509,Chelyabinsk,55.1544,61.4297,0,1246
510,Chiang Mai,18.7904,98.9847,0,1244
511,Bobo-Dioulasso,11.1771,-4.2979,0,1243
512,Saharanpur,29.9667,77.5500,0,1242
513,Guilin,25.2819,110.2864,0,1238
514,Hubli-Dharwad,15.4587,75.0106,0,1231
515,Maputo,-25.9653,32.5892,0,1230
516,Yueqing,28.1194,120.9612,0,1229
517,Hargeysa,9.5600,44.0650,0,1227
518,Salt Lake City,40.7547,-111.8926,0,1225
519,Guwahati (Gauhati),26.1735,91.7503,0,1224
520,Salem,11.6500,78.1667,0,1220
521,Providence,41.8240,-71.4177,0,1216
522,Mexicali,32.6519,-115.4683,0,1215
523,Bandar Lampung,-5.4254,105.2580,0,1210
524,Shimkent,42.3000,69.6000,0,1203
525,Tarabulus (Tripoli),32.8752,13.1875,0,1203
526,Hefa (Haifa),32.8133,34.9914,0,1199
527,Ikorodu,6.6087,3.5108,0,1196
528,Aguascalientes,21.8833,-102.3000,0,1196
529,Siliguri,26.7161,88.4236,0,1191
530,Amsterdam,52.3740,4.8897,0,1189
531,Memphis,35.1408,-90.0475,0,1188
532,Tshikapa,-6.4162,20.7999,0,1185
533,Wenling,28.3758,121.3781,0,1184
534,Omsk,55.0000,73.4000,0,1180
535,Xinxiang,35.2989,113.9015,0,1180
536,Krasnoyarsk,56.0097,92.7917,0,1177
537,Bien Hoa,10.9500,106.8167,0,1174
538,Fuyang,32.8895,115.8152,0,1170
539,Zaozhuang,34.8647,117.5542,0,1168
540,Jalandhar,31.3256,75.5792,0,1167
541,Ma'anshan,31.7071,118.5038,0,1165
542,Panjin,41.1219,122.0701,0,1163
543,Richmond,37.5432,-77.4382,0,1162
544,"Fuzhou, Jiangxi",27.9812,116.3557,0,1159
545,Sekondi Takoradi,4.9340,-1.7137,0,1159
546,"Yichun, Jiangxi",27.8062,114.3892,0,1159
547,Yongin,37.2352,127.2033,0,1157
548,Cuernavaca,18.9167,-99.2500,0,1156
549,Samarinda,-0.4948,117.1436,0,1154
550,Adan (Aden),12.7988,45.0359,0,1154
551,Samara,53.2001,50.1500,0,1153
552,Shangrao,28.4604,117.9531,0,1153
553,Chihuahua,28.6333,-106.0833,0,1153
554,Köln (Cologne),50.9333,6.9500,0,1153
555,Asmara,15.3333,38.9333,0,1152
556,Bishkek,42.8700,74.5900,0,1151
557,Chenzhou,25.8000,113.0333,0,1150
558,Zhaoqing,23.0512,112.4597,0,1150
559,Ufa,54.7852,56.0456,0,1148
560,Nyala,12.0500,24.8833,0,1145
561,Leshan,29.5762,103.7590,0,1142
562,Rostov-na-Donu (Rostov-on-Don),47.2178,39.7032,0,1140
563,Louisville,38.2419,-85.7631,0,1135
564,Dezhou,37.4518,116.3010,0,1133
565,San Salvador,13.6893,-89.1872,0,1132
566,Diyarbakir,37.9158,40.2189,0,1128
567,Kirkuk,35.4681,44.3922,0,1128
568,Johor Bahru,1.4655,103.7578,0,1127
569,"Jingzhou, Hubei",30.3276,112.2484,0,1126
570,Changshu,31.6539,120.7467,0,1123
571,Goyang,37.6564,126.8350,0,1121
572,Managua,12.1328,-86.2504,0,1120
573,Kermanshah,34.3142,47.0650,0,1117
574,Xuchang,34.0167,113.8167,0,1117
575,McAllen,26.2163,-98.2364,0,1116
576,Oslo,59.9127,10.7461,0,1115
577,Huzhou,30.8703,120.0933,0,1114
578,Blantyre-Limbe,-15.7850,35.0085,0,1114
579,Solapur,17.6833,75.9167,0,1108
580,Cartagena,10.3997,-75.5144,0,1105
581,Yerevan,40.1820,44.5146,0,1100
582,Ilorin,8.5000,4.5500,0,1099
583,Mersin,36.8000,34.6333,0,1099
584,Denpasar,-8.6500,115.2167,0,1097
585,Qujing,25.4894,103.7977,0,1092
586,Lille,50.6330,3.0586,0,1091
587,Tbilisi,41.6941,44.8337,0,1087
588,Guiping,23.3934,110.0744,0,1086
589,Voronezh,51.6720,39.1843,0,1086
590,Perm,58.0174,56.2855,0,1085
591,Marrakech,31.6315,-8.0083,0,1085
592,Aracaju,-10.9111,-37.0717,0,1081
593,Warangal,18.0000,79.5833,0,1080
594,Toulouse,43.6043,1.4437,0,1080
595,Yueyang,29.3722,113.1153,0,1079
596,Hamah,35.1318,36.7578,0,1078
597,Tampico,22.2167,-97.8500,0,1077
598,Warri,5.5167,5.7500,0,1076
599,Xintai,35.9006,117.7519,0,1073
600,Padang,-0.9492,100.3543,0,1072
601,Teresina,-5.0892,-42.8019,0,1068
602,Saltillo,25.4167,-101.0000,0,1066
603,Cancún,21.1743,-86.8466,0,1065
604,Antwerpen,51.2199,4.4035,0,1064
605,Owerri,5.4833,7.0304,0,1063
606,Cebu City,10.3167,123.8907,0,1061
607,Nampula,-15.1165,39.2666,0,1057
608,Changwon,35.2281,128.6811,0,1056
609,Chengde,40.9672,117.9322,0,1052
610,San Miguel de Tucumán,-26.8241,-65.2226,0,1051
611,Lubango,-14.9172,13.4925,0,1047
612,Acapulco de Juárez,16.8634,-99.8901,0,1046
613,Zhucheng,35.9947,119.3975,0,1045
614,Leiyang,26.4169,112.8503,0,1043
615,"Pingxiang, Jiangxi",27.6348,113.8477,0,1042
616,Dehradun,30.3167,78.0333,0,1041
617,Dushanbe,38.5358,68.7790,0,1039
618,Kayseri,38.7322,35.4853,0,1037
619,Oklahoma City,35.4675,-97.5164,0,1037
620,Jos,9.9167,8.9000,0,1035
621,Misratah,32.3753,15.0925,0,1034
622,Tucson,32.2145,-110.9182,0,1034
623,San Pedro Sula,15.5000,-88.0333,0,1034
624,Sylhet,24.8967,91.8717,0,1032
625,Hartford,41.7637,-72.6851,0,1031
626,Laiwu,36.2074,117.6720,0,1031
627,Songkhla,7.1988,100.5951,0,1030
628,New Orleans,29.9547,-90.0751,0,1029
629,Nonthaburi,13.8602,100.5218,0,1026
630,Rotterdam,51.9225,4.4792,0,1026
631,"Jixi, Heilongjiang",45.2958,130.9701,0,1024
632,Valparaíso,-33.0393,-71.6273,0,1024
633,Jiujiang,29.7041,116.0013,0,1024
634,Temecula-Murrieta,33.5363,-117.1630,0,1018
635,Bordeaux,44.8404,-0.5805,0,1018
636,Najaf,31.9973,44.3314,0,1017
637,Krasnodar,45.0488,38.9725,0,1017
638,Agadir,30.4248,-9.5937,0,1017
639,Morelia,19.7008,-101.1844,0,1016
640,Bangui,4.3612,18.5550,0,1016
641,Guigang,23.0964,109.6092,0,1011
642,Ta'izz,13.5795,44.0209,0,1009
643,Mudanjiang,44.5833,129.6000,0,1009
644,Hengshui,37.7411,115.6781,0,1008
645,Rajshahi,24.3667,88.6000,0,1007
646,Odesa,46.4775,30.7326,0,1006
647,El Paso,31.7776,-106.4425,0,1006
648,Xinyu,27.8043,114.9334,0,1003
649,Linfen,36.0889,111.5189,0,1002
650,Zhangzhou,24.5133,117.6556,0,1002
651,Tianmen,30.6534,113.1605,0,1000
652,Liling,27.6667,113.5000,0,1000
653,Jerusalem,31.7690,35.2163,0,996
654,Yangjiang,21.8614,111.9563,0,995
655,Zamboanga City,6.9103,122.0750,0,995
656,Volgograd,48.7194,44.5018,0,992
657,Ciudad Guayana,8.3512,-62.6410,0,991
658,Cabinda,-5.5500,12.2000,0,990
659,Umuahia,5.5263,7.4896,0,990
660,Antipolo,14.6235,121.1245,0,989
661,Deyang,31.1302,104.3820,0,985
662,Arequipa,-16.3989,-71.5350,0,983
663,Reynosa,26.0833,-98.2833,0,983
664,Baishan,41.9373,126.4229,0,983
665,Jiangyin,31.9157,120.2810,0,982
666,Cúcuta,7.8939,-72.5078,0,981
667,Bogra,24.8500,89.3667,0,981
668,Veracruz,19.2000,-96.1333,0,981
669,Khulna,22.8098,89.5644,0,980
670,Albuquerque,35.1107,-106.6100,0,978
671,Cape Coral,26.6396,-81.9825,0,975
672,Bengbu,32.9408,117.3608,0,975
673,Pathum Thani,14.0135,100.5305,0,974
674,Bridgeport-Stamford,41.1670,-73.2048,0,972
675,Villahermosa,17.9833,-92.9167,0,972
676,Bahawalpur,29.4000,71.6833,0,970
677,Southampton/Portsmouth (South Hampshire),50.9117,-1.4036,0,966
678,Wahran (Oran),35.6911,-0.6417,0,966
679,Guntur,16.3000,80.4500,0,962
680,West Rand,-26.1200,27.7500,0,961
681,Nice-Cannes,43.6646,7.1534,0,956
682,Changzhi,36.1921,113.1155,0,949
683,Malang,-7.9797,112.6304,0,948
684,Dandong,40.1198,124.3739,0,947
685,Hermosillo,29.0845,-110.9672,0,944
686,Bhiwandi,19.3000,73.0667,0,943
687,Seongnam,37.4386,127.1378,0,943
688,Campo Grande,-20.4567,-54.6185,0,943
689,Londrina,-23.3103,-51.1628,0,942
690,Firozabad,27.1500,78.4167,0,941
691,Ashgabat,37.9500,58.3833,0,941
692,Puducherry,11.9300,79.8300,0,940
693,Irbil (Erbil),36.1926,44.0106,0,940
694,Changde,29.0464,111.6783,0,938
695,Shangqiu,34.4244,115.6514,0,935
696,Kuerle,41.7646,86.1472,0,934
697,La Plata,-34.9215,-57.9545,0,933
698,Liaoyang,41.2719,123.1731,0,931
699,Dnipro,48.4500,34.9833,0,931
700,Lokoja,7.8024,6.7430,0,931
701,Cherthala,9.6835,76.3367,0,931
702,Quzhou,28.9594,118.8686,0,929
703,Concepción,-36.8270,-73.0498,0,929
704,Trujillo,-8.1160,-79.0300,0,929
705,Liverpool,53.4106,-2.9779,0,928
706,Honolulu,21.3089,-157.8262,0,927
707,Tuxtla Gutierrez,16.7500,-93.1167,0,927
708,Tyumen,57.1522,65.5272,0,926
709,Bergamo,45.6980,9.6690,0,923
710,Xingtai,37.0631,114.4942,0,921
711,Soshanguve,-25.4729,28.0992,0,919
712,Culiacán,24.7994,-107.3897,0,918
713,Ulsan,35.5372,129.3167,0,916
714,Huangshi,30.2068,115.0855,0,908
715,Enugu,6.4402,7.4943,0,906
716,Yongzhou,26.4351,111.6063,0,904
717,Fuxin,42.0156,121.6589,0,903
718,Xinghua,32.9373,119.8387,0,902
719,Bunia,1.5667,30.2500,0,900
720,Libreville,0.3925,9.4536,0,899
721,Maiduguri,11.8464,13.1603,0,898
722,Yibin,28.7667,104.6238,0,897
723,Hufuf-Mubarraz,25.4100,49.5808,0,897
724,Huaihua,27.5494,109.9592,0,892
725,Xinyang,32.1289,114.0746,0,890
726,Buffalo,42.8879,-78.8716,0,889
727,Xiaogan,30.9256,113.9175,0,887
728,Ipoh,4.5833,101.0833,0,887
729,Yangquan,37.8558,113.5826,0,886
730,Kottayam,9.5833,76.5167,0,885
731,Luzhou,28.8775,105.4408,0,884
732,Banghazi,32.1167,20.0667,0,881
733,Tainan,23.1316,120.2590,0,880
734,Birmingham,33.5157,-86.8011,0,878
735,Tianshui,34.5809,105.7237,0,878
736,Benguela,-12.5760,13.4050,0,878
737,Bozhou,33.8703,115.7770,0,877
738,Omaha,41.2586,-95.9378,0,876
739,Donetsk,48.0230,37.8022,0,876
740,Provo-Orem,40.2338,-111.6585,0,875
741,Zanzibar,-6.1639,39.1979,0,873
742,Kunshan ,31.3881,120.9629,0,873
743,Zhuji,29.7132,120.2368,0,869
744,Jincheng,35.4865,112.8515,0,863
745,Malanje,-9.5400,16.3410,0,861
746,Eskisehir,39.7767,30.5206,0,860
747,Orumiyeh,37.5527,45.0761,0,860
748,Nellore,14.4462,79.9842,0,858
749,Québec,46.8123,-71.2145,0,858
750,Winnipeg,49.8955,-97.1294,0,857
751,Bikaner,28.0167,73.3000,0,853
752,Heze,35.2451,115.4598,0,851
753,Zhumadian,32.9794,114.0294,0,851
754,Palermo,38.1158,13.3598,0,851
755,Huludao,40.7524,120.8355,0,851
756,Taixing,32.1667,120.0136,0,848
757,Haicheng,40.8552,122.7434,0,848
758,Anqiu,36.4342,119.1925,0,847
759,Ibb,13.9667,44.1833,0,847
760,Gebze,40.8028,29.4307,0,846
761,Sulaimaniya,35.5617,45.4408,0,846
762,Langfang,39.5097,116.6947,0,846
763,Liaocheng,36.4551,115.9826,0,845
764,Barcelona-Puerto La Cruz,10.2167,-64.6167,0,845
765,Gaomi,36.3833,119.7528,0,841
766,Valencia,39.4697,-0.3774,0,841
767,Hanchuan,30.6516,113.8329,0,839
768,Dasmarinas,14.2990,120.9590,0,839
769,Kayamkulam,9.1666,76.5043,0,838
770,Cagayan de Oro City,8.4822,124.6472,0,837
771,Meishan,30.0761,103.8456,0,837
772,Saratov,51.5406,46.0086,0,837
773,Muzaffarnagar,29.4667,77.6833,0,836
774,Xalapa,19.5377,-96.9137,0,834
775,Newcastle upon Tyne,54.9733,-1.6140,0,834
776,Ar-Rayyan,25.2919,51.4244,0,831
777,Danyang,32.0008,119.5745,0,829
778,Sorocaba,-23.5017,-47.4581,0,829
779,Merca,1.7159,44.7717,0,828
780,Bucheon,37.4989,126.7831,0,827
781,Amravati,20.9333,77.7500,0,824
782,Kitwe,-12.8167,28.2000,0,823
783,Gaza (incl. Ash Shati Camp),31.5106,34.4588,0,823
784,Oshogbo,7.7667,4.5667,0,822
785,Nakhon Ratchasima,14.9707,102.1020,0,821
786,Jiaozuo,35.2397,113.2331,0,820
787,Goma,-1.6792,29.2228,0,819
788,Nottingham,52.9536,-1.1505,0,819
789,Bologna,44.4938,11.3387,0,819
790,Gorakhpur,26.7599,83.3714,0,816
791,Thessaloniki,40.6403,22.9439,0,815
792,Linhai,28.8529,121.1403,0,813
793,Yan'an,36.5967,109.4838,0,813
794,Vereeniging,-26.6731,27.9261,0,812
795,Erduosi (Ordoss),39.5917,109.7666,0,812
796,Anqing,30.5430,117.0533,0,811
797,Fresno,36.7545,-119.7711,0,811
798,Zaria,11.1113,7.7227,0,809
799,Bur Sa'id,31.2565,32.2841,0,808
800,Tulsa,36.1313,-95.9373,0,807
801,Knoxville,35.9607,-83.9277,0,807
802,Shaoguan,24.8000,113.5833,0,805
803,Cuttack,20.4650,85.8793,0,804
804,Dengzhou,32.6822,112.0819,0,804
805,Frankfurt am Main,50.1167,8.6833,0,803
806,Akure,7.2526,5.1931,0,803
807,Allentown-Bethlehem,40.6091,-75.4760,0,800
808,Belgaum,15.8521,74.5045,0,799
809,Malegaon,20.5500,74.5333,0,799
810,Banjarmasin,-3.3244,114.5910,0,799
811,Tirupati,13.6500,79.4167,0,797
812,Yuncheng,35.0231,110.9928,0,797
813,Yuxi,24.3567,102.5395,0,795
814,Niigata,37.9139,139.0327,0,793
815,Hamilton,43.2495,-79.8475,0,793
816,Yanji,42.9075,129.5078,0,792
817,Zigong,29.3416,104.7769,0,791
818,Shaoyang,27.2403,111.4709,0,790
819,Qingyuan,23.7146,113.0297,0,790
820,Maturin,9.7500,-63.1767,0,789
821,Sialkot,32.5000,74.5167,0,789
822,Tongliao,43.6125,122.2653,0,788
823,Nay Pyi Taw,19.7450,96.1297,0,788
824,Tongling,30.9363,117.8109,0,786
825,Baton Rouge,30.4507,-91.1546,0,785
826,Dazhou,31.2159,107.5009,0,785
827,Al-Hudaydah,14.7978,42.9545,0,784
828,Tamale,9.4008,-0.8393,0,784
829,Wuzhou,23.4832,111.2741,0,784
830,"Suining, Sichuan",30.5236,105.5639,0,780
831,Mangalore,12.9172,74.8560,0,778
832,Amara,31.8344,47.1524,0,778
833,Huambo,-12.7761,15.7392,0,777
834,"Columbia, South Carolina",33.9995,-81.0365,0,776
835,Zhangjiagang,31.8650,120.5389,0,775
836,Sargodha,32.0833,72.6667,0,775
837,Bacoor,14.4130,120.9737,0,774
838,Jiamusi,46.7979,130.3302,0,774
839,Dongtai,32.8523,120.3095,0,773
840,Nanded Waghala,19.1618,77.3137,0,772
841,Sarasota-Bradenton,27.3364,-82.5306,0,771
842,Ansan,37.3236,126.8219,0,771
843,Ogden-Layton,41.2230,-111.9738,0,770
844,Kraków (Cracow),50.0668,19.9425,0,769
845,Lattakia,35.5148,35.7768,0,767
846,Bhavnagar,21.7667,72.1500,0,766
847,Ankang,32.6912,109.0297,0,766
848,"Xianyang, Shaanxi",34.3386,108.7015,0,765
849,Charleston-North Charleston,32.7893,-79.9863,0,765
850,Kurnool,15.8267,78.0352,0,765
851,Taicang,31.4549,121.1172,0,764
852,São José dos Campos,-23.1794,-45.8869,0,764
853,Panzhihua,26.5851,101.7128,0,761
854,Sokoto,13.0609,5.2390,0,761
855,Uvira,-3.3953,29.1378,0,760
856,Zarqa,32.0683,36.0889,0,758
857,Yuyao,30.0426,121.1531,0,758
858,Rochester,43.1569,-77.6046,0,758
859,Cotonou,6.3654,2.4183,0,757
860,Rasht,37.2808,49.5832,0,757
861,Ribeirão  Preto,-21.1775,-47.8103,0,757
862,Oaxaca de Juárez,17.0500,-96.7167,0,757
863,Sheffield,53.3830,-1.4659,0,756
864,East London (Buffalo City),-33.0153,27.9116,0,756
865,Vientiane,17.9667,102.6000,0,755
866,"Yulin, Shaanxi",38.2838,109.7315,0,754
867,Dayton,39.7584,-84.1929,0,754
868,Balikpapan,-1.2675,116.8289,0,753
869,Herat,34.3482,62.1997,0,752
870,Longyan,25.1072,117.0225,0,752
871,Gold Coast-Tweed Head,-28.0003,153.4309,0,752
872,Gulbarga,17.3333,76.8333,0,751
873,Jammu,32.7278,74.8569,0,751
874,Miluo,28.8069,113.0721,0,751
875,Bakersfield,35.3573,-119.0317,0,751
876,Hezhou,24.4152,111.5540,0,749
877,Loudi,27.7344,111.9944,0,747
878,Bijie,27.3070,105.2837,0,746
879,Zhoukou,33.6174,114.6461,0,745
880,Renqiu,38.6989,116.0936,0,745
881,Tongxiang,30.6296,120.5536,0,744
882,Al-Manamah (Manama),26.2154,50.5832,0,743
883,Zaragoza,41.6561,-0.8773,0,742
884,Durgapur,23.5204,87.3119,0,740
885,Buraydah,26.3260,43.9750,0,740
886,Salta,-24.7859,-65.4117,0,737
887,Longhai,24.4462,117.8090,0,736
888,Kumamoto,32.7897,130.7417,0,735
889,Pontianak,-0.0333,109.3333,0,735
890,Cheongju,36.6372,127.4897,0,732
891,Puyang,35.7705,115.0438,0,729
892,Celaya,20.5167,-100.8167,0,727
893,Taif,21.2703,40.4158,0,726
894,Qinzhou,21.9681,108.6214,0,726
895,Uberlândia,-18.9186,-48.2772,0,725
896,s-Gravenhage (The Hague),52.0767,4.2986,0,724
897,Enshi,30.2902,109.4785,0,724
898,Bauchi,10.3134,9.8433,0,723
899,Abakaliki,6.3163,8.1169,0,723
900,The Woodlands,30.1630,-95.4558,0,722
901,Jundiaí,-23.1883,-46.8913,0,720
902,General Santos City,6.1128,125.1717,0,720
903,Bristol,51.4552,-2.5966,0,720
904,Samsun,41.2833,36.3333,0,718
905,Okayama,34.6507,133.9135,0,718
906,Lviv,49.8380,24.0325,0,718
907,Zaporizhzhya,47.8229,35.1903,0,716
908,Ezhou,30.4001,114.8846,0,716
909,Haimen,31.8952,121.1684,0,714
910,Firenze (Florence),43.7667,11.2500,0,713
911,Sanya,18.2676,109.5034,0,713
912,Cheonan,36.8132,127.1410,0,713
913,Calabar,4.9517,8.3220,0,712
914,Mbeya,-8.9000,33.4500,0,712
915,Denizli,37.7742,29.0875,0,712
916,Jubayl,27.0112,49.6583,0,711
917,Nantes,47.2172,-1.5534,0,711
918,Nasiriyah,31.0333,46.2667,0,710
919,Sihui,23.3462,112.6958,0,710
920,Concord,37.9780,-122.0311,0,710
921,Zhoushan,29.9885,122.2135,0,709
922,Bissau,11.8636,-15.5977,0,709
923,Colorado Springs,38.8634,-104.7919,0,708
924,Santiago,19.4602,-70.6997,0,707
925,Tabuk,28.3833,36.5833,0,707
926,Jhansi,25.4333,78.5833,0,706
927,Erode,11.3428,77.7274,0,705
928,Cuito,-12.3830,16.9330,0,704
929,Macao,22.2006,113.5461,0,701
930,Sevilla,37.3824,-5.9761,0,700
931,Wuhai,39.6647,106.8122,0,700
932,Padova,45.4152,11.8818,0,700
933,Mar Del Plata,-38.0023,-57.5575,0,698
934,As-Suways,29.9681,32.5475,0,698
935,Sanhe,39.9819,117.0713,0,697
936,Pachuca de Soto,20.1170,-98.7333,0,692
937,Neijiang,29.5835,105.0622,0,692
938,Jamnagar,22.4667,70.0667,0,691
939,Bandar Abbas,27.1865,56.2808,0,690
940,Comilla,23.4578,91.2044,0,690
941,"Springfield, Massachusett, Connecticut",42.1015,-72.5898,0,690
942,Tolyatti,53.5303,49.3461,0,689
943,Liège,50.6337,5.5675,0,688
944,Bokaro Steel City,23.6645,86.1478,0,687
945,Durango,24.0333,-104.6667,0,686
946,Uige,-7.1069,15.4406,0,686
947,Anshun,26.2444,105.9324,0,685
948,Jambi,-1.6000,103.6167,0,685
949,Xinmi,34.5355,113.3890,0,684
950,Patiala,30.3267,76.4003,0,684
951,Zagreb,45.8144,15.9780,0,684
952,Ogbomosho,8.1324,4.2433,0,682
953,Bilaspur,22.0783,82.1457,0,682
954,Mazar-e Sharif,36.7090,67.1109,0,681
955,Cenxi,22.9191,110.9945,0,681
956,Jinzhong,37.6882,112.7349,0,680
957,Chiclayo,-6.7736,-79.8417,0,678
958,Hegang,47.3443,130.2937,0,678
959,Raurkela,22.2249,84.8618,0,676
960,Likasi,-10.9814,26.7333,0,675
961,Be'er Sheva,31.2518,34.7913,0,675
962,Bacolod,10.6507,122.9460,0,674
963,Genova (Genoa),44.4063,8.9339,0,674
964,Ad-Dawhah (Doha),25.2747,51.5245,0,673
965,Hillah,32.4825,44.4314,0,673
966,Jingjiang,32.0120,120.2627,0,673
967,Agartala,23.8364,91.2750,0,670
968,Dengfeng,34.4553,113.0281,0,669
969,Kolhapur,16.6956,74.2317,0,669
970,Bulawayo,-20.1500,28.5833,0,668
971,Busto Arsizio,45.6113,8.8491,0,668
972,Ujjain,23.1833,75.7667,0,668
973,Hanzhong,33.0728,107.0303,0,668
974,Jeonju,35.8219,127.1489,0,667
975,Beira,-19.8436,34.8389,0,666
976,Al-Ain,24.1917,55.7606,0,666
977,Safaqis,34.7485,10.7562,0,665
978,Ajmer,26.4500,74.6333,0,664
979,Mathura,27.5000,77.6833,0,664
980,Kuching,1.5500,110.3333,0,663
981,Imphal,24.8167,93.9500,0,662
982,Rupganj,23.7926,90.5206,0,662
983,Chongjin,41.7956,129.7758,0,661
984,"Yulin, Guangxi",22.6339,110.1533,0,661
985,Mission Viejo,33.6000,-117.6720,0,657
986,San Jose del Monte,14.8206,121.1023,0,656
987,Shuozhou,39.3158,112.4225,0,655
988,Izhevsk,56.8498,53.2045,0,652
989,Belfast,54.5947,-5.9298,0,651
990,Al-Mukalla,14.5425,49.1242,0,650
991,Łódź,51.7594,19.4600,0,650
992,Shishi,24.7367,118.6340,0,649
993,Irkutsk,52.2978,104.2964,0,648
994,Fuqing,25.7250,119.3794,0,648
995,Siping,43.1633,124.3686,0,647
996,Colombo,6.9319,79.8478,0,647
997,Daye,30.0987,114.9703,0,647
998,Albany,42.6600,-73.7800,0,646
999,Zhaodong,46.0668,125.9896,0,646
1000,Hosur,12.7167,77.8167,0,646
1001,Tlaxcala,19.3139,-98.2417,0,646
1002,Genève,46.2022,6.1457,0,644
1003,Khabarovsk,48.4827,135.0838,0,644
1004,Verona,45.4342,10.9978,0,644
1005,Göteborg,57.7032,11.9663,0,643
1006,Thoothukkudi (Tuticorin),8.8090,78.1369,0,643
1007,Zahedan,29.4963,60.8629,0,643
1008,Venezia,45.4357,12.3396,0,643
1009,Duesseldorf,51.2217,6.7762,0,642
1010,Barnaul,53.3606,83.7636,0,642
1011,Wrocław,51.1000,17.0333,0,642
1012,Sanmenxia,34.7715,111.2038,0,642
1013,Imus,14.4064,120.9405,0,641
1014,Gaozhou,21.9159,110.8499,0,640
1015,Xinyi,34.3668,118.3430,0,640
1016,Kabinda,-6.1379,24.4818,0,640
1017,Seregno,45.6524,9.2003,0,638
1018,"Yiyang, Hunan",28.5666,112.3487,0,637
1019,Mekele,13.4967,39.4753,0,637
1020,Stuttgart,48.7823,9.1770,0,636
1021,Feira De Santana,-12.2667,-38.9667,0,636
1022,Bamenda,5.9527,10.1582,0,636
1023,Sangli,16.8544,74.5642,0,635
1024,Bouake,7.6939,-5.0303,0,635
1025,Samarkand,39.6542,66.9597,0,634
1026,Brighton-Worthing-Littlehampton,50.8284,-0.1395,0,632
1027,Zinder,13.8072,8.9881,0,631
1028,Udaipur,24.5661,73.6911,0,629
1029,Tonghua,41.7201,125.9281,0,629
1030,Jalgaon,21.0092,75.5644,0,628
1031,Mbouda,5.6258,10.2552,0,628
1032,Ndola,-12.9587,28.6366,0,628
1033,Qitaihe,45.7671,130.9750,0,628
1034,Jiaozhou,36.2839,120.0033,0,627
1035,Dongyang,29.2753,120.2303,0,627
1036,Zaoyang,32.1272,112.7542,0,627
1037,Vellore,12.9333,79.1333,0,625
1038,Bari,41.1177,16.8512,0,625
1039,Xiantao,30.3718,113.4484,0,625
1040,Cabimas,10.3883,-71.4399,0,624
1041,Gaya,24.7833,85.0000,0,623
1042,Loum,4.7182,9.7351,0,623
1043,Ulyanovsk,54.3282,48.3866,0,622
1044,Sanliurfa,37.1671,38.7939,0,622
1045,Skopje,42.0000,21.4333,0,620
1046,Berbera,10.4396,45.0143,0,620
1047,Gombe,10.2897,11.1673,0,619
1048,Guangyuan,32.4420,105.8230,0,619
1049,Hebi,35.7470,114.2956,0,619
1050,Bloemfontein,-29.1211,26.2140,0,618
1051,Victorville-Hesperia-Apple Valley,34.5340,-117.2958,0,618
1052,Karbala,32.5983,44.0239,0,618
1053,Oujda,34.6805,-1.9076,0,617
1054,Samut Sakhon,13.5475,100.2736,0,616
1055,Tirunelveli,8.7333,77.7000,0,616
1056,Djibouti,11.5877,43.1447,0,616
1057,Riga,56.9460,24.1059,0,615
1058,Kikwit,-5.0410,18.8162,0,615
1059,Grand Rapids,42.9564,-85.6649,0,614
1060,Ardabil,38.2498,48.2933,0,614
1061,Yaroslavl,57.6299,39.8737,0,613
1062,Kota Kinabalu,5.9782,116.1166,0,613
1063,Yanshi,34.7293,112.7799,0,612
1064,Tomsk,56.4942,84.9742,0,611
1065,Kissimmee,28.3047,-81.4167,0,611
1066,Hamadan,34.7992,48.5146,0,611
1067,Panipat,29.3889,76.9681,0,611
1068,Diwaniyah,31.9905,44.9306,0,610
1069,Al-Raqqa,35.9500,39.0167,0,610
1070,Ibagué,4.4389,-75.2322,0,610
1071,Vladivostok,43.1056,131.8735,0,609
1072,Weinan,34.5035,109.5089,0,609
1073,Larkana,27.5500,68.2167,0,609
1074,Yazd,31.8972,54.3675,0,609
1075,Leipzig,51.3396,12.3713,0,609
1076,New Haven,41.3019,-72.9299,0,608
1077,Rustenburg,-25.6676,27.2421,0,607
1078,Abeokuta,7.1500,3.3500,0,607
1079,El Djelfa,34.6728,3.2630,0,606
1080,Al-Mansurah,31.0364,31.3807,0,606
1081,Basilan City (including City of Isabela),6.7041,121.9712,0,606
1082,Cuiabá,-15.5961,-56.0967,0,606
1083,Cangzhou,38.3167,116.8667,0,604
1084,Udon Thani,17.4157,102.7859,0,604
1085,Ambon,-3.6954,128.1814,0,604
1086,Kingston,17.9970,-76.7936,0,603
1087,Matamoros,25.5333,-103.2500,0,603
1088,Makhachkala,42.9764,47.5024,0,602
1089,Yongkang,28.9033,120.0328,0,602
1090,Kahramanmaras,37.5847,36.9264,0,601
1091,Tepic,21.5000,-104.9000,0,601
1092,Juiz De Fora,-21.7642,-43.3503,0,601
1093,Angeles City,15.1500,120.5833,0,601
1094,Feicheng,36.1854,116.7674,0,600
1095,Kitchener-Cambrigde-Waterloo,43.4254,-80.5112,0,599
1096,Changning,26.4078,112.3957,0,599
1097,"Yichun, Heilongjiang",47.7245,128.8337,0,599
1098,Poza Rica de Hidalgo,20.5331,-97.4595,0,598
1099,Sakarya,40.7738,30.4024,0,598
1100,Tongchuan,34.8988,108.9506,0,597
1101,Xingning,24.1455,115.7253,0,597
1102,Changge,34.2224,113.7736,0,596
1103,Santa Fe,-31.6327,-60.6983,0,596
1104,Haining,30.5273,120.6897,0,595
1105,Sukkur,27.7000,68.8667,0,595
1106,Meknès,33.8935,-5.5473,0,595
1107,Malaga,36.7202,-4.4203,0,595
1108,Calamba,14.1877,121.1251,0,594
1109,Kryvyi Rih,47.9108,33.3925,0,594
1110,Dresden,51.0509,13.7383,0,594
1111,Rajahmundry,17.0038,81.7894,0,593
1112,Taishan,22.2504,112.7943,0,592
1113,Toulon,43.1240,5.9332,0,592
1114,Gaoyou,32.7791,119.4470,0,592
1115,Valledupar,10.4631,-73.2532,0,591
1116,Qingzhou,36.6845,118.4796,0,590
1117,Dortmund,51.5167,7.4500,0,590
1118,Dali,25.5900,100.2235,0,589
1119,Pereira,4.8133,-75.6961,0,589
1120,Chuzhou,32.2985,118.3164,0,589
1121,Arak,34.0917,49.6892,0,589
1122,Shouguang,36.8788,118.7482,0,589
1123,Longkou,37.6417,120.5199,0,589
1124,Catania,37.5021,15.0872,0,588
1125,Khamis Mushayt,18.3064,42.7292,0,587
1126,Sheikhupura,31.7131,73.9783,0,587
1127,Fayetteville-Springdale,36.1867,-94.1295,0,586
1128,Begusarai,25.4167,86.1333,0,586
1129,Chiang Rai,19.9083,99.8325,0,586
1130,Chuxiong,25.0445,101.5410,0,585
1131,Bellary,15.1500,76.9333,0,585
1132,Gongyi,34.7600,112.9714,0,585
1133,Laixi,36.8651,120.5238,0,584
1134,Villavicencio,4.1420,-73.6266,0,584
1135,Chaoyang,41.5773,120.4511,0,581
1136,Kismaayo,-0.3667,42.5333,0,581
1137,Essen,51.4537,7.0104,0,580
1138,Changyi,36.8546,119.3913,0,580
1139,Pingdu,36.7808,119.9592,0,580
1140,Des Moines,41.6005,-93.6091,0,578
1141,Kagoshima,31.5710,130.5485,0,578
1142,Basel,47.5584,7.5733,0,578
1143,Van,38.5000,43.3833,0,578
1144,Puerto Vallarta,20.6204,-105.2307,0,578
1145,Harrisburg,40.2717,-76.8850,0,578
1146,Ado-Ekiti,7.6210,5.2215,0,577
1147,Kandahar,31.6133,65.7101,0,577
1148,Arusha,-3.3667,36.6833,0,575
1149,Gomel,52.4345,30.9754,0,575
1150,Greenville,34.8498,-82.3973,0,575
1151,Utrecht,52.0908,5.1222,0,575
1152,Leicester,52.6386,-1.1317,0,575
1153,Shizuishan,39.2333,106.7694,0,574
1154,Shangyu,30.0311,120.8722,0,574
1155,Rayong,12.6809,101.2580,0,573
1156,Port St. Lucie,27.2939,-80.3503,0,573
1157,Worcester,42.2626,-71.8023,0,571
1158,Akron,41.0814,-81.5190,0,570
1159,Kemerovo,55.3333,86.0833,0,570
1160,Orenburg,51.7727,55.0988,0,570
1161,Heyuan,23.7509,114.6992,0,569
1162,Balashikha,55.7982,37.9680,0,569
1163,Bremen,53.0752,8.8078,0,568
1164,Guang'an,30.4639,106.6351,0,568
1165,Nakhon Pathom,13.8194,100.0442,0,567
1166,Irbid,32.5556,35.8500,0,567
1167,Muzaffarpur,26.1167,85.4000,0,567
1168,Purnia,25.7833,87.4667,0,566
1169,Namangan,40.9983,71.6726,0,566
1170,Gwagwalada,8.9414,7.0919,0,566
1171,Potiskum,11.7091,11.0694,0,565
1172,Barisal,22.7019,90.3711,0,565
1173,Ziyang,30.1256,104.6305,0,564
1174,Katsina,12.9894,7.6006,0,564
1175,Kakinada,16.9333,82.2167,0,563
1176,Edinburgh,55.9521,-3.1965,0,563
1177,Davanagere,14.4608,75.9199,0,563
1178,Mataram,-8.5833,116.1167,0,561
1179,Pietermaritzburg (The Msunduzi),-29.6168,30.3928,0,560
1180,San Juan,-31.5375,-68.5364,0,560
1181,Surakarta,-7.5561,110.8317,0,560
1182,Al Obeid (Al Ubayyid),13.1842,30.2167,0,560
1183,Anyang,37.3925,126.9269,0,559
1184,Cuautla Morelos,18.8000,-98.9500,0,559
1185,Kerman,30.2832,57.0788,0,559
1186,Kuantan,3.8077,103.3260,0,558
1187,Qianjiang,30.4221,112.8925,0,557
1188,Santa Marta,11.2408,-74.1990,0,557
1189,Al-Mahallah al-Kubra,30.9745,31.1650,0,556
1190,Kolwezi,-10.7148,25.4667,0,555
1191,Pôrto Velho,-8.7619,-63.9039,0,554
1192,Toamasina,-18.1667,49.3833,0,554
1193,Jinjiang,24.8106,118.5773,0,554
1194,Eslamshahr,35.5626,51.2359,0,553
1195,Winston-Salem,36.1028,-80.2605,0,551
1196,Kalasin,16.4328,103.5066,0,551
1197,Okpogho,6.4404,7.2844,0,551
1198,Jianyang,30.3921,104.5448,0,550
1199,Songyuan,27.6217,119.0592,0,550
1200,Wichita,37.6888,-97.3362,0,548
1201,Yongcheng,33.9318,116.4434,0,547
1202,Port Sudan (Bur Sudan),19.6195,37.2124,0,547
1203,Zhuanghe,39.7051,122.9688,0,547
1204,Novokuznetsk,53.7557,87.1099,0,546
1205,Port of Spain,10.6662,-61.5166,0,546
1206,Okene,7.5507,6.2337,0,546
1207,Lancaster-Palmdale,34.6869,-118.1509,0,546
1208,Hamhung,39.9183,127.5364,0,545
1209,Reno,39.5296,-119.8138,0,545
1210,Little Rock,34.7420,-92.2754,0,544
1211,Palm Bay-Melbourne,28.0590,-80.5983,0,543
1212,Chizhou,30.6578,117.4831,0,543
1213,Grenoble,45.1667,5.7167,0,543
1214,Xuancheng,30.9490,118.7524,0,543
1215,Gaoan,28.4271,115.3722,0,541
1216,Vale do Aço,-19.9405,-43.9354,0,541
1217,Vilnius,54.6892,25.2798,0,541
1218,Hejian,38.4425,116.0949,0,541
1219,Tanta,30.7872,30.9995,0,540
1220,Ryazan,54.6269,39.6916,0,540
1221,Jingmen,31.0417,112.2003,0,540
1222,Lvliang,37.5195,111.1318,0,540
1223,Nanping,26.6433,118.1741,0,539
1224,Hannover,52.3705,9.7332,0,538
1225,Poughkeepsie-Newburgh,41.6018,-73.9656,0,538
1226,Latur,18.4000,76.5833,0,537
1227,Naberezhnye Tchelny,55.7255,52.4112,0,536
1228,Quelimane,-17.8786,36.8883,0,536
1229,Khon-Kaen,16.4467,102.8330,0,535
1230,Tiranë (Tirana),41.3275,19.8189,0,535
1231,Blida,36.4808,2.8319,0,535
1232,Mbandaka,0.0486,18.2603,0,534
1233,Astrakhan,46.3497,48.0408,0,534
1234,Ar-Rusayfah,32.0156,36.0428,0,533
1235,Minna,9.6139,6.5569,0,532
1236,Lapu-Lapu City,10.3103,123.9494,0,532
1237,Malatya,38.3500,38.3167,0,532
1238,Chaohu,31.6000,117.8667,0,532
1239,Lancaster,40.0379,-76.3055,0,532
1240,Shuangyashan,46.6361,131.1539,0,531
1241,Rahim Yar Khan,28.4151,70.2997,0,530
1242,Zhongxiang,31.1661,112.5831,0,529
1243,Chimoio,-19.1164,33.4833,0,529
1244,Duisburg,51.4333,6.7500,0,528
1245,Surat Thani,9.1401,99.3331,0,528
1246,Igbidu,6.0683,8.1169,0,528
1247,Ubon Ratchathani,15.2384,104.8487,0,527
1248,Kénitra,34.2610,-6.5802,0,527
1249,Fuan,27.0881,119.6454,0,526
1250,Bournemouth/Poole,50.7205,-1.8795,0,526
1251,London,42.9834,-81.2330,0,526
1252,Dera Ghazikhan,30.0500,70.6333,0,526
1253,Macapá,0.0389,-51.0664,0,525
1254,Bhagalpur,25.2500,87.0000,0,525
1255,Kut,32.5000,45.8333,0,525
1256,La Serena-Coquimbo,-29.9045,-71.2489,0,524
1257,Gboko,7.3268,9.0034,0,524
1258,Lop Buri,14.7981,100.6540,0,524
1259,Witbank,-25.8713,29.2332,0,523
1260,Seremban,2.7297,101.9381,0,523
1261,Rohtak,28.9000,76.5667,0,522
1262,Daytona Beach-Port Orange,29.1383,-80.9956,0,521
1263,Thu Dau Mot,10.9667,106.6500,0,521
1264,Penza,53.2007,45.0046,0,520
1265,Kirov,58.6031,49.6682,0,520
1266,Shillong,25.5689,91.8831,0,520
1267,Pinghu,30.7037,121.0097,0,519
1268,Madison,43.0697,-89.4001,0,518
1269,Poznań,52.4069,16.9299,0,518
1270,Utsunomiya,36.5658,139.8836,0,517
1271,Murcia,37.9870,-1.1300,0,517
1272,Cheboksary,56.1322,47.2519,0,517
1273,Yuhuan,28.1359,121.2318,0,516
1274,Toledo,41.6565,-83.5499,0,515
1275,Beihai,21.4785,109.1200,0,515
1276,Karaganda,49.8011,73.0954,0,514
1277,Petrolina,-9.3986,-40.5008,0,513
1278,Kelamayi,45.5941,84.8729,0,512
1279,Bata,1.8639,9.7658,0,512
1280,Cusco,-13.5183,-71.9781,0,512
1281,Nurenberg,49.4504,11.0758,0,512
1282,Indio-Cathedral City-Palm Springs,33.7199,-116.2319,0,511
1283,Windhoek,-22.5594,17.0832,0,511
1284,Pokhara,28.2333,83.9833,0,511
1285,Anantapur,14.6833,77.6000,0,510
1286,Banjul,13.4531,-16.6794,0,510
1287,Ondo,7.1000,4.8333,0,509
1288,Zanjan,36.6736,48.4787,0,509
1289,Mymensingh,24.7500,90.4000,0,509
1290,Piura,-5.2000,-80.6333,0,508
1291,Iloilo City,10.6966,122.5629,0,508
1292,Caxias Do Sul,-29.1681,-51.1794,0,508
1293,Raniganj,23.6164,87.1306,0,507
1294,Bhilwara,25.3500,74.6333,0,507
1295,Dire Dawa,9.5931,41.8661,0,507
1296,Polokwane,-23.9045,29.4688,0,506
1297,Douai-Lens,50.3682,3.0795,0,506
1298,Santa Rosa,14.2843,121.0889,0,505
1299,Oyo,7.8500,3.9333,0,505
1300,Lobito,-12.3640,13.5360,0,505
1301,Orizaba,18.8500,-97.1000,0,505
1302,Iquitos,-3.7372,-73.2528,0,504
1303,Ramadi,33.4167,43.3000,0,503
1304,Jurong,31.9498,119.1609,0,503
1305,Lipetsk,52.6031,39.5708,0,502
1306,Liyang,31.4230,119.4837,0,502
1307,Matsuyama,33.8324,132.7595,0,502
1308,Kadapa,14.4710,78.8241,0,500
1309,Xinzheng,34.3985,113.7368,0,500
1310,Juba,4.8517,31.5825,0,500
1311,Morogoro,-6.8167,37.6667,0,497
1312,San Cristóbal,7.7669,-72.2250,0,497
1313,Asyut,27.1810,31.1837,0,496
1314,Tartus,34.8932,35.8884,0,496
1315,Brescia,45.5248,10.2273,0,496
1316,Bafoussam,5.4737,10.4179,0,495
1317,Yamunanagar,30.1000,77.2833,0,495
1318,Cardiff,51.4800,-3.1800,0,495
1319,Guarenas-Guatire,10.4674,-66.6066,0,495
1320,Sahiwal,30.6646,73.1093,0,495
1321,"Kaliningrad, Kaliningrad Oblast",54.7143,20.5100,0,495
1322,Wafangdian ,39.6267,121.9949,0,494
1323,Tongcheng,31.0538,116.9556,0,493
1324,Como,45.8100,9.0874,0,492
1325,Mazatlán,23.2407,-106.4143,0,492
1326,Juazeiro Do Norte,-7.2131,-39.3153,0,492
1327,Bayannaoer,40.7505,107.4052,0,492
1328,Fangchenggang,21.7659,108.3539,0,491
1329,"Ji'an, Jiangxi",27.1177,114.9804,0,491
1330,Makurdi,7.7411,8.5121,0,489
1331,Strasbourg,48.5834,7.7430,0,489
1332,English Bazar,25.0000,88.1500,0,489
1333,Irapuato,20.6784,-101.3465,0,489
1334,Fengcheng,28.1787,115.7758,0,489
1335,Tete,-16.1564,33.5867,0,489
1336,Hardwar,29.9667,78.1667,0,489
1337,Nankang,25.6655,114.7558,0,489
1338,Sikasso,11.3135,-5.6697,0,487
1339,Buenaventura,3.8850,-77.0700,0,487
1340,"Lishui, Zhejiang",28.4570,119.9192,0,487
1341,Montpellier,43.6109,3.8772,0,486
1342,Palma,39.5694,2.6502,0,485
1343,Wah,33.7641,72.7450,0,485
1344,Ruiru,-1.1515,36.9519,0,484
1345,Chişinău,47.0056,28.8575,0,484
1346,Eldoret,0.5204,35.2699,0,483
1347,Buri Ram,14.9943,103.1039,0,483
1348,Avignon,43.9483,4.8089,0,483
1349,Jhang,31.2670,72.3126,0,483
1350,Canberra,-35.2835,149.1281,0,482
1351,Sanandaj,35.3144,46.9923,0,482
1352,Boise City,43.6195,-116.2123,0,482
1353,Sagar,23.8405,78.7385,0,481
1354,Alwar,27.5625,76.6250,0,481
1355,Suizhou,31.7111,113.3631,0,481
1356,Akola,20.7333,77.0000,0,481
1357,Sochi,43.5992,39.7257,0,481
1358,Nuevo Laredo,27.4763,-99.5164,0,480
1359,Batman,37.8874,41.1322,0,480
1360,Yixing,31.3599,119.7763,0,479
1361,Bonita Springs-Naples,26.3398,-81.7787,0,479
1362,Lampang,18.2923,99.4928,0,479
1363,Gent,51.0500,3.7167,0,479
1364,Vungtau,10.3460,107.0843,0,479
1365,Cagliari,39.2074,9.1346,0,478
1366,Rouen,49.4431,1.0993,0,478
1367,Akesu,41.1695,80.2626,0,478
1368,Concord,35.4088,-80.5795,0,478
1369,Yingde,24.1974,113.4055,0,477
1370,Dhulian,24.6709,87.9482,0,476
1371,Mykolaiv,46.9659,31.9974,0,476
1372,Yogyakarta,-7.7828,110.3608,0,476
1373,Hechi,24.6977,108.0808,0,476
1374,Kursk,51.7373,36.1874,0,475
1375,Danzhou,19.5166,109.5752,0,475
1376,Visalia,36.3241,-119.3073,0,475
1377,Zhangye,38.9342,100.4517,0,474
1378,General Trias,14.3214,121.9073,0,474
1379,Oita,33.2365,131.6099,0,474
1380,Denton-Lewisville,33.0467,-96.9941,0,474
1381,Rampur,28.8062,79.0277,0,473
1382,Manado,1.4870,124.8455,0,473
1383,Andizhan,40.7831,72.3439,0,472
1384,Saki,8.6667,3.3833,0,471
1385,Phra Nakhon Si Ayutthaya,14.3517,100.5772,0,470
1386,Xingping,34.3011,108.4877,0,470
1387,Kurashiki,34.5833,133.7667,0,470
1388,Songea,-10.6833,35.6500,0,469
1389,Lausanne,46.5160,6.6328,0,469
1390,Newcastle-Maitland,-32.9249,151.7409,0,469
1391,Roi Et,16.0567,103.6531,0,469
1392,Spokane,47.6733,-117.4103,0,469
1393,Gujrat,32.5667,74.0833,0,469
1394,Erzurum,39.9086,41.2769,0,467
1395,Ikot Ekpene,5.1794,7.7108,0,467
1396,Nazret,8.5409,39.2716,0,467
1397,Xinzhu,24.8036,120.9686,0,467
1398,Latina,41.4661,12.9043,0,467
1399,Shanwei,22.7787,115.3568,0,467
1400,Antofagasta,-23.6500,-70.4000,0,466
1401,Gandhidham,23.0671,70.1400,0,465
1402,Matadi,-5.8177,13.4717,0,465
1403,Gdańsk,54.3520,18.6464,0,465
1404,Campos dos Goytacazes,-21.7664,-41.3196,0,465
1405,Augusta-Richmond County,33.4671,-81.9902,0,465
1406,Baharampur,24.1000,88.2500,0,464
1407,Bijapur,16.8244,75.7154,0,464
1408,Ottappalam,10.7667,76.3833,0,464
1409,Santiago Del Estero,-27.7951,-64.2615,0,464
1410,Botou,38.0667,116.5667,0,463
1411,Longchang,29.3394,105.2876,0,462
1412,Tula,54.2021,37.6443,0,462
1413,Stavropol,45.0428,41.9734,0,461
1414,Taranto,40.4625,17.2597,0,461
1415,Salahah (Salalah),17.0123,54.0894,0,461
1416,Manizales,5.0689,-75.5174,0,461
1417,Xingyang,34.7916,113.3834,0,461
1418,Tétouan,35.5711,-5.3724,0,461
1419,Cuenca,-2.8833,-78.9833,0,461
1420,Kanazawa,36.5564,136.6430,0,461
1421,Phuket,7.8906,98.3981,0,460
1422,Stockton,37.9577,-121.2908,0,460
1423,São José do Rio Preto,-20.8197,-49.3794,0,460
1424,Fukuyama,34.4833,133.3667,0,460
1425,Karnal,29.6833,76.9833,0,458
1426,Suihua,46.6366,126.9830,0,458
1427,Barddhaman,23.2406,87.8694,0,458
1428,Jiyuan,35.0926,112.5833,0,457
1429,Tallinn,59.4370,24.7535,0,457
1430,Al-Hasakah,36.5024,40.7477,0,457
1431,Enping,22.1853,112.3048,0,456
1432,Rangpur,25.7500,89.2500,0,456
1433,Effon Alaiye,7.6500,4.9167,0,456
1434,Monteria,8.7480,-75.8814,0,456
1435,Resistencia,-27.4606,-58.9839,0,456
1436,Korba,22.3500,82.6833,0,456
1437,Linzhou,36.0710,113.8156,0,455
1438,Huangshan,29.7127,118.3225,0,455
1439,Coventry-Bedworth,52.4066,-1.5122,0,454
1440,Gaoping,35.7977,112.9230,0,454
1441,Volta Redonda,-22.5231,-44.1042,0,453
1442,Nakuru,-0.2833,36.0667,0,453
1443,Aktyubinsk,50.2855,57.1628,0,453
1444,Elazig,38.6743,39.2232,0,451
1445,Ulan-Ude,51.8261,107.6098,0,451
1446,Laibin,23.7380,109.2268,0,451
1447,Doha Industrial Area,25.2222,51.4222,0,451
1448,Bengkulu,-3.8003,102.2653,0,450
1449,Siheung,37.4556,126.9024,0,450
1450,Karimnagar,18.4333,79.1500,0,450
1451,Gondar,12.6000,37.4667,0,450
1452,Najran,17.4924,44.1277,0,449
1453,Al-Fayyum,29.3100,30.8418,0,449
1454,Bern,46.9481,7.4474,0,448
1455,Heshan,22.7659,112.9590,0,447
1456,Okara,30.8081,73.4458,0,447
1457,Colima,19.2333,-103.7167,0,447
1458,Pingliang,35.5392,106.6861,0,446
1459,Hue,16.4667,107.6000,0,446
1460,Hami,42.8259,93.5169,0,446
1461,Maringá,-23.4253,-51.9386,0,446
1462,Jiuquan,39.7380,98.5042,0,446
1463,Antsirabe,-19.8664,47.0335,0,446
1464,Brahmapur,19.3167,84.7833,0,446
1465,Birnin Kebbi,12.4539,4.1975,0,445
1466,"Jackson, Mississippi",32.2957,-90.1840,0,445
1467,Qazvin,36.2688,50.0041,0,444
1468,Junagadh,21.5167,70.4667,0,444
1469,Durham,35.9886,-78.9072,0,443
1470,Bratislava,48.1482,17.1067,0,443
1471,Santiago de Cuba,20.0247,-75.8219,0,443
1472,Emeishan,29.6007,103.4856,0,443
1473,Parakou,9.3372,2.6303,0,442
1474,Santa Clarita,34.3917,-118.5426,0,441
1475,Cabuyao,14.2471,121.1367,0,441
1476,Dhule,20.9000,74.7833,0,441
1477,Myrtle Beach,33.6891,-78.8867,0,441
1478,Changji,44.0117,87.3038,0,440
1479,Xinyi,22.3585,110.9388,0,440
1480,Binan,14.3036,121.0781,0,440
1481,Dhamar,14.5427,44.4051,0,440
1482,Thies,14.8000,-16.9333,0,439
1483,Wuwei,37.9251,102.6337,0,439
1484,Neuquén-Plottier-Cipolletti,-38.9514,-68.0648,0,439
1485,Rongcheng,37.1540,122.4363,0,439
1486,Ratchaburi,13.5367,99.8169,0,438
1487,Tieling,42.2931,123.8414,0,438
1488,Dindigul,10.3690,77.9804,0,438
1489,Ife,7.4773,4.5589,0,438
1490,Lipa City,13.9419,121.1627,0,437
1491,Chattanooga,35.0455,-85.2673,0,436
1492,Shengzhou,29.5930,120.8214,0,436
1493,Baiyin,36.5487,104.1831,0,435
1494,Alajuela,10.0167,-84.2167,0,435
1495,Wanning,18.7955,110.3826,0,434
1496,Mandaue City,10.3236,123.9222,0,433
1497,Caserta,41.0832,14.3349,0,433
1498,Corrientes,-27.4806,-58.8341,0,432
1499,Ahmadnagar,19.0833,74.7333,0,432
1500,Ilesha,7.6167,4.7333,0,431
1501,Port Moresby,-9.4431,147.1797,0,431
1502,Al-Quwaysimah,31.9167,35.9500,0,431
1503,Ha'il,27.5219,41.6907,0,431
1504,Modesto,37.6615,-120.9945,0,430
1505,St. Catharines-Niagara,43.1668,-79.2496,0,430
1506,Meizhou,24.2989,116.1214,0,429
1507,Deoghar,24.4886,86.6990,0,428
1508,Wad Medani,14.4012,33.5199,0,428
1509,Armenia,4.5339,-75.6811,0,428
1510,Minatitlán,18.0013,-94.5581,0,427
1511,Wellington,-41.2866,174.7756,0,427
1512,Ciudad Bolivar,8.1292,-63.5409,0,427
1513,Tver,56.8605,35.8760,0,427
1514,Syracuse,43.0468,-76.1475,0,427
1515,Qacentina,36.3549,6.6073,0,426
1516,Kaiping,22.3724,112.7026,0,426
1517,Halifax,44.6477,-63.5818,0,426
1518,Uijeongbu,37.7415,127.0474,0,425
1519,Mariupol,47.0667,37.5000,0,425
1520,Kasur,31.1150,74.4547,0,423
1521,Ajman,25.4111,55.4350,0,423
1522,Jingdezhen,29.2947,117.2079,0,423
1523,Xinzhou,38.4173,112.7331,0,423
1524,Salerno,40.6780,14.7660,0,423
1525,Mardan,34.2019,72.0525,0,422
1526,Coatzacoalcos,18.1500,-94.4167,0,422
1527,Cumana,10.4635,-64.1775,0,422
1528,Kisumu,-0.1022,34.7617,0,422
1529,Khorramabad,33.4878,48.3558,0,420
1530,Magnitogorsk,53.4186,59.0472,0,420
1531,Shahriyar,35.6594,51.0592,0,420
1532,Belgorod,50.6107,36.5802,0,420
1533,Posadas,-27.3671,-55.8961,0,419
1534,Dujiangyan,30.9966,103.6281,0,419
1535,Anand,22.5667,72.9333,0,419
1536,Huntsville,34.7297,-86.5898,0,419
1537,Chitungwiza,-18.0127,31.0755,0,419
1538,Charleroi,50.4114,4.4445,0,419
1539,Manisa,38.6120,27.4265,0,419
1540,Kuala Terengganu,5.3302,103.1408,0,418
1541,Piracicaba,-22.7253,-47.6492,0,418
1542,Bihar Sharif,25.1833,85.5167,0,418
1543,Montes Claros,-16.7350,-43.8617,0,418
1544,Oshawa,43.9001,-78.8496,0,418
1545,Barinas,8.6226,-70.2075,0,417
1546,Rufisque,14.7172,-17.2733,0,416
1547,Roorkee,29.8667,77.8833,0,415
1548,Laizhou,37.1797,119.9430,0,415
1549,Bathinda,30.2000,74.9500,0,415
1550,Qidong,31.8134,121.6577,0,415
1551,Aizawl,23.7244,92.7175,0,414
1552,Takamatsu,34.3304,134.0599,0,414
1553,Campina Grande,-7.2306,-35.8811,0,413
1554,Surgut,61.2587,73.4244,0,413
1555,Donggang,39.8834,124.1462,0,413
1556,Laiyang,36.9758,120.7136,0,412
1557,Linqing,36.8456,115.7117,0,412
1558,Santipur,23.2472,88.4330,0,412
1559,Palakkad,10.7725,76.6514,0,411
1560,Yaan,29.9874,102.9945,0,411
1561,Kassala,15.4510,36.4000,0,411
1562,Shimoga,13.9316,75.5679,0,410
1563,Chimbote,-9.0853,-78.5783,0,410
1564,Oxnard,34.1975,-119.1770,0,410
1565,Christchurch,-43.5333,172.6333,0,410
1566,Al Gadarif,14.0349,35.3834,0,410
1567,Djougou,9.7085,1.6660,0,410
1568,Huancayo,-12.0667,-75.2333,0,410
1569,Wenchang,19.6140,110.7505,0,409
1570,Ijebu-Ode,6.8161,3.9159,0,408
1571,Huixian,35.4672,113.8013,0,408
1572,Ciudad Obregón,27.4833,-109.9333,0,408
1573,Luoding,22.7708,111.5660,0,408
1574,Baguio City,16.4108,120.5902,0,407
1575,Ranipet,12.9315,79.3323,0,407
1576,Sakon Nakhon,17.1611,104.1472,0,406
1577,Chanthaburi,12.6094,102.1044,0,406
1578,Anápolis,-16.3267,-48.9528,0,405
1579,Ningguo,30.6209,118.9796,0,405
1580,Karur,10.9577,78.0810,0,405
1581,Toyama,36.6860,137.2194,0,405
1582,Las Palmas Gran Canaria,28.1107,-15.4343,0,405
1583,Victoria,48.4329,-123.3693,0,405
1584,Zhuozhou,39.4846,115.9783,0,404
1585,Sandakan,5.8402,118.1179,0,403
1586,Maunath Bhanjan,25.9475,83.5590,0,403
1587,Pasto,1.2136,-77.2811,0,403
1588,Lafia,8.4833,8.5167,0,402
1589,Huazhou,21.6572,110.6391,0,402
1590,Dashiqiao,40.6373,122.5025,0,402
1591,Sanming,26.2641,117.6191,0,402
1592,Qufu,35.5967,116.9911,0,402
1593,Sivas,39.7500,37.0333,0,401
1594,Grodno,53.6884,23.8258,0,401
1595,Sevastopol,44.5888,33.5224,0,401
1596,Gumi,36.1191,128.3455,0,401
1597,Shahjahanpur,27.8833,79.9167,0,400
1598,Gongzhuling,43.5007,124.8198,0,400
1599,Butuan,8.9492,125.5436,0,399
1600,Tarlac,15.4470,120.4696,0,399
1601,Kanhangad,12.3081,75.1063,0,399
1602,Round Lake Beach-McHenry-Grayslake,42.3540,-88.1005,0,399
1603,Tumkur,13.3422,77.1017,0,399
1604,Zacatecas,22.7756,-102.5722,0,399
1605,Ichalkaranji,16.7000,74.4667,0,398
1606,Morvi,22.8167,70.8333,0,398
1607,Ivanovo,56.9972,40.9714,0,398
1608,Yushu,44.8243,126.5510,0,397
1609,Teeside (Middlesbrough),54.5762,-1.2348,0,397
1610,Jiayuguan,39.8080,98.2761,0,396
1611,Lengshuijiang,27.6879,111.4374,0,396
1612,Stoke-on-Trent (The Potteries),53.0042,-2.1854,0,396
1613,Szczecin,53.4289,14.5530,0,396
1614,Nagasaki,32.7502,129.8762,0,396
1615,"Xingyi, Guizhou",25.0945,104.8983,0,396
1616,Lafayette,30.2242,-92.0197,0,396
1617,Dewas,22.9667,76.0667,0,396
1618,San Pedro,14.3489,121.0392,0,395
1619,Santo Domingo,-0.2534,-79.1696,0,395
1620,Anlu,31.2575,113.6783,0,395
1621,Yunfu,22.9306,112.0373,0,395
1622,Mogilev,53.9141,30.3376,0,394
1623,Miyazaki,31.9155,131.4267,0,394
1624,Parbhani,19.2667,76.7833,0,394
1625,Xuanwei,26.2290,104.1018,0,393
1626,Rio Branco,-9.9747,-67.8100,0,393
1627,Iligan,8.2274,124.2426,0,392
1628,Ciudad Victoria,23.7333,-99.1333,0,391
1629,Gorgan,36.8417,54.4436,0,391
1630,Bauru,-22.3147,-49.0606,0,391
1631,Bryansk,53.2521,34.3717,0,390
1632,Garoua,9.3000,13.4000,0,390
1633,Liaoyuan,42.9036,125.1358,0,389
1634,Yining,43.9196,81.3161,0,389
1635,Zixing,25.9762,113.2319,0,388
1636,Kaili,26.5834,107.9719,0,387
1637,Hisar,29.1667,75.7167,0,387
1638,Fujin,47.2485,132.0373,0,387
1639,Batangas City,13.7573,121.0586,0,386
1640,Shenmu,38.8341,110.4847,0,386
1641,Az-Zaqazig,30.5875,31.5019,0,386
1642,Treviso,45.6667,12.2450,0,386
1643,Luhansk,48.5671,39.3171,0,386
1644,Faloojah,33.3558,43.7861,0,386
1645,Monclova,26.9000,-101.4167,0,385
1646,Montgomery,32.3720,-86.3045,0,384
1647,Zhaoyuan,37.3592,120.3964,0,384
1648,Zhangshu,28.0660,115.5473,0,384
1649,Pescara,42.4602,14.2102,0,384
1650,Vitebsk,55.1905,30.2033,0,384
1651,Macheng,31.1783,115.0319,0,383
1652,Leping,28.9720,117.1283,0,383
1653,San Salvador de Jujuy,-24.1946,-65.2971,0,383
1654,Al-Ismailiyah,30.6043,32.2722,0,383
1655,Khammam,17.2500,80.1500,0,382
1656,Darbhanga,26.1667,85.9000,0,382
1657,Zhaotong,27.3363,103.7189,0,382
1658,Alor Star,6.1167,100.3667,0,382
1659,Manzhouli,49.5881,117.4545,0,382
1660,Bochum,51.4833,7.2167,0,382
1661,Habra,22.8344,88.6275,0,382
1662,Haldwani-cum-kathgodam,29.2187,79.5184,0,381
1663,Hafar al-Batin,28.4251,45.9688,0,381
1664,Saint-Étienne,45.4333,4.4000,0,381
1665,Satna,24.5833,80.8333,0,381
1666,Thuqbah,26.2694,50.1986,0,381
1667,Asheville,35.5799,-82.5558,0,380
1668,Alicante,38.3452,-0.4815,0,380
1669,Brno,49.1952,16.6080,0,380
1670,Suphan Buri,14.4742,100.1222,0,380
1671,Reggio Emilia,44.6983,10.6312,0,380
1672,Antioch,38.0000,-121.8100,0,380
1673,Greensboro,36.0732,-79.7918,0,379
1674,Yuanjiang,28.8430,112.3642,0,379
1675,Chandrapur,19.9500,79.3000,0,379
1676,Farrukhabad,27.3905,79.5801,0,379
1677,Annaba,36.9000,7.7667,0,379
1678,Deir El-Zor(Deir ez-Zor),35.3322,40.1502,0,378
1679,Aswan,24.0934,32.9070,0,378
1680,Scranton,41.4106,-75.6674,0,378
1681,Sumquayit,40.5897,49.6686,0,378
1682,Baaqoobah,33.7500,44.6411,0,377
1683,Taraz,42.9000,71.3667,0,376
1684,Ningde,26.6617,119.5228,0,376
1685,Izmit,40.7748,29.9491,0,376
1686,Jalna,19.8333,75.8833,0,376
1687,Sunshine Coast,-26.6601,153.0995,0,376
1688,Vinnitsa,49.2328,28.4810,0,375
1689,Córdoba,18.8833,-96.9333,0,374
1690,Navsari,20.9485,72.9308,0,374
1691,Kota Bharu,6.1333,102.2500,0,374
1692,Kafr-ad-Dawwar,31.1338,30.1284,0,374
1693,Lakeland,28.0412,-81.9590,0,374
1694,"Springfield, Missouri",37.2083,-93.2914,0,373
1695,Eindhoven,51.4408,5.4778,0,372
1696,Haiyang,36.7823,121.1703,0,371
1697,Rennes,48.1120,-1.6743,0,371
1698,Jilong,25.1309,121.7361,0,371
1699,Yanbu' al-Bahr,24.0891,38.0637,0,371
1700,Nukus,42.4531,59.6103,0,370
1701,Brest,52.0975,23.6878,0,370
1702,Arrah,25.5631,84.6714,0,369
1703,Tours,47.3833,0.6833,0,369
1704,Wulanhaote,46.0748,122.0679,0,369
1705,Neiva,2.9273,-75.2819,0,369
1706,Thanjavur,10.8000,79.1500,0,369
1707,Boa Vista,2.8197,-60.6733,0,369
1708,Wuchuan ,21.4310,110.7762,0,369
1709,Khubar,26.2794,50.2083,0,368
1710,Sukabumi,-6.9181,106.9267,0,368
1711,Xianning,29.8356,114.3303,0,368
1712,Blumenau,-26.9194,-49.0661,0,367
1713,Tila al-Ali,31.9936,35.8628,0,367
1714,Pohang,36.0172,129.3602,0,367
1715,Franca,-20.5386,-47.4008,0,367
1716,Tehuacán,18.4500,-97.3833,0,366
1717,Ponta Grossa,-25.0950,-50.1619,0,366
1718,Songzi,30.1736,111.7761,0,366
1719,Wonsan,39.1528,127.4436,0,366
1720,Toyohashi,34.7667,137.3833,0,365
1721,Béthune,50.5333,2.6333,0,364
1722,Acarigua-Aruare,9.5545,-69.1956,0,364
1723,Nagano,36.6514,138.1811,0,364
1724,Takasaki,36.3333,139.0167,0,364
1725,Modena,44.6478,10.9254,0,364
1726,Chita,52.0317,113.5009,0,363
1727,Pensacola,30.4213,-87.2169,0,363
1728,Fort Collins,40.5592,-105.0783,0,363
1729,Ensenada,31.8667,-116.6167,0,363
1730,Merida,8.5952,-71.1434,0,362
1731,Uruapán,19.4165,-102.0579,0,361
1732,Cotabato,7.2236,124.2464,0,361
1733,Fayetteville,35.0667,-78.9176,0,361
1734,Baicheng,45.6183,122.8418,0,360
1735,Vladimir,56.1365,40.3966,0,360
1736,Dingzhou,38.5131,114.9956,0,359
1737,Gäncä,40.6828,46.3606,0,359
1738,Heredia,10.0000,-84.1167,0,359
1739,Temuco,-38.7333,-72.6000,0,359
1740,Batna,35.5560,6.1741,0,358
1741,Corpus Christi,27.7429,-97.4019,0,358
1742,Long Xuyen,10.3833,105.4167,0,357
1743,Nizamabad,18.6715,78.0988,0,357
1744,Qods,35.7130,51.1055,0,357
1745,Kashan,33.9831,51.4364,0,356
1746,Anning,24.9211,102.4784,0,356
1747,Hapur,28.7167,77.7833,0,356
1748,San Fernando,15.0594,120.6567,0,356
1749,Reading-Wokingham,51.4112,-0.8356,0,355
1750,Rushan,36.9158,121.5267,0,355
1751,Balikesir,39.6492,27.8861,0,354
1752,Iwaki,37.0500,140.8833,0,354
1753,Youngstown,41.0963,-80.6493,0,353
1754,Nha Trang,12.2500,109.1833,0,353
1755,Kaluga,54.5293,36.2754,0,352
1756,Hailin,44.5769,129.3896,0,352
1757,Oruro,-17.9833,-67.1500,0,352
1758,Kharagpur,22.3263,87.3192,0,351
1759,Saskatoon,52.1168,-106.6345,0,351
1760,Gwangmyeong,37.4772,126.8664,0,351
1761,Fort Wayne,41.0783,-85.1265,0,351
1762,Tampere,61.4991,23.7871,0,350
1763,Rugao,32.3977,120.5604,0,350
1764,Lexington-Fayette,38.0296,-84.4946,0,350
1765,Caruaru,-8.2833,-35.9761,0,350
1766,Uberaba,-19.7483,-47.9319,0,350
1767,Jeju,33.5097,126.5219,0,349
1768,Sunderland,54.9119,-1.3833,0,349
1769,Shihezi,44.3075,86.0320,0,348
1770,Sarajevo,43.8486,18.3564,0,348
1771,Wuppertal,51.2667,7.1833,0,348
1772,Arkhangelsk,64.5600,40.5333,0,347
1773,Mannheim,49.4883,8.4647,0,347
1774,Vitória da Conquista,-14.8661,-40.8394,0,347
1775,Tacna,-18.0056,-70.2483,0,347
1776,Central Coast,-33.4200,151.3958,0,347
1777,Samarra,34.1966,43.8739,0,347
1778,Jayapura,-2.6827,140.8040,0,347
1779,Plovdiv,42.1500,24.7500,0,347
1780,Savannah,32.0671,-81.1005,0,347
1781,Bilbao,43.2627,-2.9253,0,346
1782,Windsor,42.2811,-83.0079,0,346
1783,Flint,43.0276,-83.6940,0,346
1784,Ratlam,23.3167,75.0667,0,346
1785,Cordoba,37.8833,-4.7667,0,346
1786,Safi,32.2994,-9.2372,0,346
1787,Ciudad del Este,-25.5167,-54.6167,0,344
1788,Sétif,36.1911,5.4137,0,344
1789,Laredo,27.5244,-99.4906,0,344
1790,Valenciennes,50.3500,3.5333,0,344
1791,Nizhny Tagil,57.9194,59.9650,0,343
1792,Podolsk,55.4242,37.5547,0,343
1793,Yakutsk,62.0339,129.7331,0,343
1794,Barletta,41.3118,16.2908,0,342
1795,Cirebon,-6.7063,108.5570,0,342
1796,Muenster (Westfalen),51.9624,7.6257,0,341
1797,Los Mochis,25.7667,-108.9667,0,341
1798,Trenton,40.2171,-74.7429,0,341
1799,Santa Rosa,38.4405,-122.7144,0,341
1800,Malmö,55.6059,13.0007,0,339
1801,Simferopol,44.9572,34.1108,0,339
1802,Pavlodar,52.3000,76.9500,0,338
1803,Mobile,30.6944,-88.0430,0,338
1804,Bydgoszcz,53.1235,18.0076,0,338
1805,Preston,53.7610,-2.7024,0,338
1806,Lamphun,18.5805,99.0075,0,338
1807,Sari,36.5633,53.0601,0,338
1808,Ann Arbor,42.2776,-83.7409,0,338
1809,Pekalongan,-6.8873,109.6718,0,337
1810,Parma,44.8027,10.3290,0,336
1811,Birkenhead,53.3934,-3.0148,0,335
1812,Pelotas,-31.7719,-52.3425,0,335
1813,Rockford,42.2713,-89.0957,0,335
1814,Bielefeld,52.0333,8.5333,0,334
1815,Varna,43.2167,27.9167,0,334
1816,Vicenza,45.5573,11.5409,0,334
1817,Ust-Kamenogorsk,49.9647,82.6090,0,333
1818,Sinuiju,40.1006,124.3981,0,333
1819,Lansing,42.7284,-84.5514,0,332
1820,Shreveport,32.4680,-93.7711,0,331
1821,Volzhsky,48.7858,44.7797,0,331
1822,Cascavel,-24.9558,-53.4553,0,331
1823,Nola,40.9220,14.5329,0,330
1824,Kingston upon Hull,53.7483,-0.3340,0,328
1825,Taubaté,-23.0264,-45.5553,0,328
1826,Bahia Blanca,-38.7196,-62.2724,0,327
1827,Makiivka,48.0478,37.9258,0,327
1828,Lublin,51.2500,22.5667,0,326
1829,Smolensk,54.7818,32.0401,0,326
1830,Saransk,54.1838,45.1749,0,326
1831,Semipalatinsk,50.4267,80.2667,0,325
1832,Newport,51.5847,-2.9979,0,324
1833,Koriyama,37.4000,140.3833,0,323
1834,Yangchun,22.1704,111.7892,0,323
1835,Karlsruhe,49.0047,8.3858,0,323
1836,Southend-On-Sea,51.5378,0.7143,0,323
1837,Maebashi,36.3833,139.0667,0,323
1838,Bonn,50.7344,7.0955,0,320
1839,Asahikawa,43.7678,142.3703,0,320
1840,Kochi,33.5597,133.5311,0,320
1841,Swansea,51.6208,-3.9432,0,320
1842,Gimhae,35.2342,128.8811,0,320
1843,Cherepovets,59.1333,37.9000,0,319
1844,Wollongong,-34.4240,150.8935,0,318
1845,Vologda,59.2187,39.8886,0,318
1846,Naha,26.2122,127.6873,0,317
1847,Iasi,47.1667,27.6000,0,316
1848,Lecco,45.8532,9.3901,0,313
1849,Orel,52.9651,36.0785,0,313
1850,Camaguey,21.3808,-77.9169,0,313
1851,Vigo,42.2328,-8.7226,0,308
1852,Cluj-Napoca,46.7667,23.6000,0,308
1853,Timisoara,45.7494,21.2272,0,306
1854,Kurgan,55.4500,65.3333,0,305
1855,Kurume,33.3167,130.5167,0,301
1856,Valladolid,41.6552,-4.7237,0,300
1857,Vladikavkaz,43.0367,44.6678,0,297
1858,Aguadilla-Isabela-San Sebastian,18.4277,-67.1544,0,296
1859,Akita,39.7167,140.1167,0,296